Postal,FIPS,County,county seats,Population,Land Area,Land Area,Water Area,Water Area,Total Area,Total Area,latitude,longitude
AL,1001,Autauga,Prattville,"54,571","1,539.58",594.436,25.776,9.952,"1,565.36",604.388,32.536382,–86.644490
AL,1003,Baldwin,Bay Minette,"182,265","4,117.52","1,589.78","1,133.19",437.527,"5,250.71","2,027.31",30.659218,–87.746067
AL,1005,Barbour,Clayton,"27,457","2,291.82",884.876,50.865,19.639,"2,342.68",904.515,31.87067,–85.405456
AL,1007,Bibb,Centreville,"22,915","1,612.48",622.582,9.289,3.587,"1,621.77",626.169,33.015893,–87.127148
AL,1009,Blount,Oneonta,"57,322","1,669.96",644.776,15.157,5.852,"1,685.12",650.628,33.977448,–86.567246
AL,1011,Bullock,Union Springs,"10,914","1,613.06",622.805,6.057,2.338,"1,619.11",625.143,32.101759,–85.717261
AL,1013,Butler,Greenville,"20,947","2,011.98",776.829,2.727,1.053,"2,014.70",777.882,31.751667,–86.681969
AL,1015,Calhoun,Anniston,"118,572","1,569.19",605.868,16.624,6.419,"1,585.81",612.287,33.771706,–85.822513
AL,1017,Chambers,Lafayette,"34,215","1,545.01",596.531,17.048,6.582,"1,562.06",603.113,32.917943,–85.391812
AL,1019,Cherokee,Centre,"25,989","1,434.08",553.7,119.859,46.278,"1,553.94",599.978,34.069515,–85.654242
AL,1021,Chilton,Clanton,"43,643","1,794.48",692.854,20.586,7.948,"1,815.07",700.802,32.85406,–86.726628
AL,1023,Choctaw,Butler,"13,859","2,365.96",913.5,19.059,7.359,"2,385.01",920.859,31.991008,–88.248887
AL,1025,Clarke,Grove Hill,"25,833","3,207.61","1,238.47",36.543,14.109,"3,244.15","1,252.57",31.685521,–87.818624
AL,1027,Clay,Ashland,"13,932","1,564.25",603.961,5.285,2.04,"1,569.54",606.001,33.267809,–85.862051
AL,1029,Cleburne,Heflin,"14,972","1,450.65",560.1,2.366,0.913,"1,453.02",561.013,33.671981,–85.516109
AL,1031,Coffee,"Elba, Enterprise","49,948","1,758.53",678.972,3.945,1.523,"1,762.47",680.495,31.402183,–85.989201
AL,1033,Colbert,Tuscumbia,"54,428","1,534.88",592.619,76.431,29.51,"1,611.31",622.129,34.703112,–87.801457
AL,1035,Conecuh,Evergreen,"13,228","2,201.90",850.156,6.645,2.566,"2,208.54",852.722,31.428293,–86.992029
AL,1037,Coosa,Rockford,"11,539","1,685.89",650.926,39.947,15.423,"1,725.84",666.349,32.931445,–86.243482
AL,1039,Covington,Andalusia,"37,765","2,668.87","1,030.46",34.526,13.331,"2,703.40","1,043.79",31.243987,–86.448721
AL,1041,Crenshaw,Luverne,"13,906","1,576.89",608.84,5.376,2.076,"1,582.26",610.916,31.732826,–86.319222
AL,1043,Cullman,Cullman,"80,406","1,903.23",734.841,52.267,20.18,"1,955.50",755.021,34.131923,–86.869267
AL,1045,Dale,Ozark,"50,251","1,453.37",561.15,4.016,1.551,"1,457.39",562.701,31.430654,–85.609476
AL,1047,Dallas,Selma,"43,820","2,534.81",978.695,39.135,15.11,"2,573.94",993.805,32.33354,–87.114356
AL,1049,DeKalb,Fort Payne,"71,109","2,012.66",777.093,4.124,1.592,"2,016.79",778.685,34.460929,–85.803992
AL,1051,Elmore,Wetumpka,"79,303","1,601.87",618.485,99.863,38.557,"1,701.73",657.042,32.597229,–86.142739
AL,1053,Escambia,Brewton,"38,319","2,447.75",945.08,20.873,8.059,"2,468.62",953.139,31.121748,–87.168429
AL,1055,Etowah,Gadsden,"104,430","1,385.62",534.991,35.323,13.638,"1,420.94",548.629,34.047638,–86.034420
AL,1057,Fayette,Fayette,"17,241","1,625.63",627.66,4.393,1.696,"1,630.02",629.356,33.732249,–87.752049
AL,1059,Franklin,Russellville,"31,704","1,641.59",633.821,32.898,12.702,"1,674.49",646.523,34.441988,–87.842815
AL,1061,Geneva,Geneva,"26,790","1,487.71",574.408,11.765,4.543,"1,499.48",578.951,31.090866,–85.824346
AL,1063,Greene,Eutaw,"9,045","1,676.01",647.11,33.231,12.831,"1,709.24",659.941,32.844497,–87.964201
AL,1065,Hale,Greensboro,"15,760","1,667.80",643.943,32.526,12.558,"1,700.33",656.501,32.752796,–87.623061
AL,1067,Henry,Abbeville,"17,302","1,454.93",561.75,16.987,6.559,"1,471.91",568.309,31.516978,–85.239971
AL,1069,Houston,Dothan,"101,547","1,501.74",579.824,4.74,1.83,"1,506.48",581.654,31.158193,–85.296398
AL,1071,Jackson,Scottsboro,"53,227","2,791.67","1,077.87",126.657,48.903,"2,918.32","1,126.77",34.763522,–85.977400
AL,1073,Jefferson,Birmingham,"658,466","2,878.19","1,111.28",32.474,12.538,"2,910.67","1,123.81",33.553444,–86.896536
AL,1075,Lamar,Vernon,"14,564","1,566.55",604.846,1.601,0.618,"1,568.15",605.464,33.787085,–88.087431
AL,1077,Lauderdale,Florence,"92,709","1,729.33",667.697,138.027,53.293,"1,867.36",720.99,34.904122,–87.650997
AL,1079,Lawrence,Moulton,"34,339","1,788.85",690.678,68.688,26.521,"1,857.54",717.199,34.529776,–87.321865
AL,1081,Lee,Opelika,"140,247","1,573.51",607.536,21.53,8.313,"1,595.04",615.849,32.604064,–85.353048
AL,1083,Limestone,Athens,"82,782","1,450.23",559.936,122.382,47.252,"1,572.61",607.188,34.810239,–86.981400
AL,1085,Lowndes,Hayneville,"11,299","1,854.20",715.911,23.724,9.16,"1,877.92",725.071,32.147888,–86.650586
AL,1087,Macon,Tuskegee,"21,452","1,577.01",608.885,11.194,4.322,"1,588.20",613.207,32.387027,–85.692887
AL,1089,Madison,Huntsville,"334,811","2,076.12",801.593,28.771,11.109,"2,104.89",812.702,34.764238,–86.551080
AL,1091,Marengo,Linden,"21,027","2,530.11",976.882,14.995,5.789,"2,545.11",982.671,32.247591,–87.791091
AL,1093,Marion,Hamilton,"30,776","1,922.53",742.292,3.313,1.279,"1,925.84",743.571,34.138219,–87.881551
AL,1095,Marshall,Guntersville,"93,019","1,465.52",565.842,148.503,57.337,"1,614.03",623.179,34.309564,–86.321668
AL,1097,Mobile,Mobile,"412,992","3,184.22","1,229.44","1,073.75",414.577,"4,257.97","1,644.01",30.684573,–88.196568
AL,1099,Monroe,Monroeville,"23,068","2,656.49","1,025.68",22.643,8.743,"2,679.13","1,034.42",31.580332,–87.383266
AL,1101,Montgomery,Montgomery,"229,363","2,031.19",784.247,40.571,15.665,"2,071.76",799.912,32.203651,–86.203831
AL,1103,Morgan,Decatur,"119,490","1,500.48",579.337,51.065,19.716,"1,551.54",599.053,34.454484,–86.846402
AL,1105,Perry,Marion,"10,591","1,863.92",719.664,10.919,4.216,"1,874.84",723.88,32.639005,–87.293827
AL,1107,Pickens,Carrollton,"19,746","2,282.84",881.408,22.578,8.717,"2,305.42",890.125,33.296809,–88.096878
AL,1109,Pike,Troy,"32,899","1,740.72",672.094,2.363,0.912,"1,743.08",673.006,31.798726,–85.941997
AL,1111,Randolph,Wedowee,"22,913","1,503.62",580.55,9.285,3.585,"1,512.90",584.135,33.296475,–85.464068
AL,1113,Russell,Phenix City,"52,947","1,660.55",641.14,15.673,6.052,"1,676.22",647.192,32.289811,–85.186980
AL,1115,St. Clair,"Ashville, Pell City","83,593","1,636.62",631.902,56.3,21.738,"1,692.92",653.64,33.712963,–86.315663
AL,1117,Shelby,Columbiana,"195,085","2,032.96",784.93,63.701,24.595,"2,096.66",809.525,33.262937,–86.678104
AL,1119,Sumter,Livingston,"13,763","2,341.06",903.887,24.436,9.435,"2,365.49",913.322,32.597481,–88.200057
AL,1121,Talladega,Talladega,"82,291","1,908.24",736.775,60.944,23.531,"1,969.18",760.306,33.369277,–86.175805
AL,1123,Tallapoosa,Dadeville,"41,616","1,855.78",716.521,128.809,49.733,"1,984.59",766.254,32.863369,–85.799553
AL,1125,Tuscaloosa,Tuscaloosa,"194,656","3,423.33","1,321.76",76.396,29.497,"3,499.73","1,351.25",33.290202,–87.522860
AL,1127,Walker,Jasper,"67,023","2,049.18",791.192,36.264,14.002,"2,085.44",805.194,33.791571,–87.301092
AL,1129,Washington,Chatom,"17,581","2,797.72","1,080.21",21.651,8.359,"2,819.37","1,088.57",31.406974,–88.202078
AL,1131,Wilcox,Camden,"11,670","2,301.20",888.498,48.985,18.913,"2,350.19",907.411,31.99033,–87.302205
AL,1133,Winston,Double Springs,"24,484","1,587.61",612.979,48.923,18.889,"1,636.53",631.868,34.155888,–87.364147
AK,2013,Aleutians East,Sand Point,"3,141","18,083.15","6,981.94","20,792.21","8,027.92","38,875.36","15,009.86",55.243722,–161.950749
AK,2016,Aleutians West [4],—,"5,561","11,370.76","4,390.28","25,190.64","9,726.16","36,561.41","14,116.44",51.959447,–178.338813
AK,2020,Anchorage,Anchorage,"291,826","4,415.11","1,704.68",663.861,256.318,"5,078.97","1,961.00",61.177549,–149.274354
AK,2050,Bethel [4],—,"17,013","105,075.82","40,570.00","12,779.52","4,934.20","117,855.35","45,504.21",60.928916,–160.153350
AK,2060,Bristol Bay,Naknek,997,"1,304.95",503.843,993.83,383.72,"2,298.78",887.563,58.731373,–156.986612
AK,2068,Denali,Healy,"1,826","33,026.00","12,751.41",66.069,25.509,"33,092.07","12,776.92",63.682732,–150.026719
AK,2070,Dillingham [4],—,"4,847","48,092.91","18,568.78","6,077.22","2,346.43","54,170.14","20,915.21",59.824816,–158.602233
AK,2090,Fairbanks North Star,Fairbanks,"97,581","19,005.87","7,338.21",273.188,105.479,"19,279.06","7,443.69",64.690832,–146.599867
AK,2100,Haines,Haines,"2,508","6,005.15","2,318.60","1,053.88",406.903,"7,059.02","2,725.50",59.099905,–135.578102
AK,2105,Hoonah-Angoon [4],—,"2,150","19,489.44","7,524.92","8,778.09","3,389.24","28,267.52","10,914.15",58.076434,–135.185100
AK,2110,Juneau,Juneau,"31,275","6,997.97","2,701.93","1,429.58",551.962,"8,427.54","3,253.89",58.3727,–134.178781
AK,2122,Kenai Peninsula,Soldotna,"55,400","41,634.92","16,075.33","22,473.29","8,676.99","64,108.21","24,752.32",60.366373,–152.321973
AK,2130,Ketchikan Gateway,Ketchikan,"13,477","12,583.23","4,858.41","4,649.41","1,795.15","17,232.65","6,653.56",55.449938,–131.106685
AK,2150,Kodiak Island,Kodiak,"13,592","16,963.33","6,549.58","14,173.06","5,472.25","31,136.39","12,021.83",57.553611,–153.630911
AK,2164,Lake and Peninsula,King Salmon [5],"1,631","61,258.42","23,652.01","24,010.46","9,270.49","85,268.88","32,922.50",58.205065,–156.705188
AK,2170,Matanuska-Susitna,Palmer,"88,995","63,734.16","24,607.90","1,682.74",649.709,"65,416.90","25,257.61",62.182174,–149.407974
AK,2180,Nome [4],—,"9,492","59,470.69","22,961.76","13,768.01","5,315.86","73,238.70","28,277.62",64.783686,–164.188912
AK,2185,North Slope,Barrow,"9,430","229,720.05","88,695.41","15,801.18","6,100.87","245,521.23","94,796.28",69.449343,–153.472830
AK,2188,Northwest Arctic,Kotzebue,"7,523","92,132.57","35,572.58","13,406.69","5,176.35","105,539.25","40,748.94",67.005066,–160.021086
AK,2195,Petersburg [4],—,"3,815","8,500.29","3,281.98","6,221.37","2,402.08","14,721.66","5,684.07",56.639612,–133.527996
AK,2198,Prince of Wales-Hyder [4],—,"5,559","10,160.19","3,922.87","9,739.42","3,760.41","19,899.61","7,683.28",55.415683,–132.875734
AK,2220,Sitka,Sitka,"8,881","7,434.14","2,870.34","5,027.40","1,941.09","12,461.55","4,811.43",57.142509,–135.332624
AK,2230,Skagway,Skagway,968,"1,171.52",452.325,30.331,11.711,"1,201.85",464.036,59.575097,–135.335418
AK,2240,Southeast Fairbanks [4],—,"7,029","64,150.92","24,768.81",752.795,290.656,"64,903.71","25,059.46",63.864997,–143.218628
AK,2261,Valdez-Cordova [4],—,"9,636","88,680.88","34,239.88","15,799.69","6,100.30","104,480.57","40,340.18",61.34984,–145.023141
AK,2270,Wade Hampton [4],—,"7,459","44,240.71","17,081.43","6,712.00","2,591.52","50,952.71","19,672.95",62.283174,–163.190950
AK,2275,Wrangell,Wrangell,"2,369","6,582.41","2,541.48","2,384.28",920.574,"8,966.69","3,462.06",56.279121,–132.040326
AK,2282,Yakutat,Yakutat,662,"19,812.00","7,649.46","4,696.71","1,813.41","24,508.71","9,462.87",59.999083,–140.239593
AK,2290,Yukon-Koyukuk [4],—,"5,588","376,855.66","145,504.79","5,956.56","2,299.84","382,812.22","147,804.63",65.376131,–151.576855
AZ,4001,Apache,St. Johns,"71,518","29,001.44","11,197.52",54.176,20.917,"29,055.62","11,218.44",35.385845,–109.493747
AZ,4003,Cochise,Bisbee,"131,346","15,969.06","6,165.69",137.025,52.906,"16,106.09","6,218.60",31.881793,–109.754120
AZ,4005,Coconino,Flagstaff,"134,421","48,222.69","18,618.89",109.964,42.457,"48,332.65","18,661.34",35.829692,–111.773728
AZ,4007,Gila,Globe,"53,597","12,322.99","4,757.93",97.112,37.495,"12,420.10","4,795.43",33.789618,–110.811870
AZ,4009,Graham,Safford,"37,220","11,972.47","4,622.60",47.834,18.469,"12,020.31","4,641.07",32.931828,–109.878310
AZ,4011,Greenlee,Clifton,"8,437","4,773.67","1,843.13",13.745,5.307,"4,787.42","1,848.43",33.238872,–109.242323
AZ,4012,La Paz,Parker,"20,489","11,653.98","4,499.63",36.582,14.124,"11,690.57","4,513.75",33.727625,–114.038793
AZ,4013,Maricopa,Phoenix,"3,817,117","23,828.26","9,200.14",62.796,24.246,"23,891.06","9,224.39",33.346541,–112.495534
AZ,4015,Mohave,Kingman,"200,186","34,475.55","13,311.08",387.371,149.565,"34,862.92","13,460.65",35.717705,–113.749689
AZ,4017,Navajo,Holbrook,"107,449","25,771.47","9,950.42",24.078,9.297,"25,795.55","9,959.72",35.390934,–110.320908
AZ,4019,Pima,Tucson,"980,263","23,794.31","9,187.04",5.338,2.061,"23,799.65","9,189.10",32.128237,–111.783018
AZ,4021,Pinal,Florence,"375,770","13,896.87","5,365.61",22.332,8.622,"13,919.20","5,374.23",32.91891,–111.367257
AZ,4023,Santa Cruz,Nogales,"47,420","3,203.60","1,236.92",3.088,1.192,"3,206.69","1,238.11",31.525904,–110.845190
AZ,4025,Yavapai,Prescott,"211,033","21,039.77","8,123.50",11.502,4.441,"21,051.27","8,127.94",34.630044,–112.573745
AZ,4027,Yuma,Yuma,"195,751","14,281.17","5,513.99",13.254,5.117,"14,294.43","5,519.11",32.773942,–113.910905
AR,5001,Arkansas,"De Witt, Stuttgart","19,019","2,560.90",988.77,116.496,44.979,"2,677.40","1,033.75",34.289574,–91.376547
AR,5003,Ashley,Hamburg,"21,853","2,396.64",925.349,39.311,15.178,"2,435.95",940.527,33.190835,–91.772267
AR,5005,Baxter,Mountain Home,"41,513","1,435.59",554.283,83.997,32.432,"1,519.59",586.715,36.28071,–92.330438
AR,5007,Benton,Bentonville,"221,339","2,194.65",847.357,94.662,36.549,"2,289.31",883.906,36.337825,–94.256187
AR,5009,Boone,Harrison,"36,903","1,528.69",590.231,30.044,11.6,"1,558.74",601.831,36.304308,–93.079204
AR,5011,Bradley,Warren,"11,508","1,681.50",649.231,9.547,3.686,"1,691.05",652.917,33.463819,–92.168164
AR,5013,Calhoun,Hampton,"5,368","1,628.02",628.581,9.926,3.833,"1,637.94",632.414,33.56046,–92.513879
AR,5015,Carroll,"Berryville, Eureka Springs","27,446","1,631.92",630.087,22.566,8.713,"1,654.48",638.8,36.337774,–93.541663
AR,5017,Chicot,Lake Village,"11,800","1,668.74",644.304,120.392,46.483,"1,789.13",690.787,33.267139,–91.297158
AR,5019,Clark,Arkadelphia,"22,995","2,243.12",866.074,43.396,16.755,"2,286.52",882.829,34.053312,–93.176205
AR,5021,Clay,"Piggott, Corning","16,083","1,656.21",639.465,5.106,1.971,"1,661.31",641.436,36.367302,–90.418704
AR,5023,Cleburne,Heber Springs,"25,970","1,434.06",553.692,99.015,38.23,"1,533.07",591.922,35.566288,–92.059974
AR,5025,Cleveland,Rison,"8,689","1,548.25",597.783,2.5,0.965,"1,550.75",598.748,33.893201,–92.188714
AR,5027,Columbia,Magnolia,"24,552","1,984.07",766.053,1.814,0.7,"1,985.88",766.753,33.21507,–93.226901
AR,5029,Conway,Morrilton,"21,273","1,430.32",552.25,37.343,14.418,"1,467.66",566.668,35.265702,–92.689248
AR,5031,Craighead,"Lake City, Jonesboro","96,443","1,831.66",707.206,14.162,5.468,"1,845.82",712.674,35.828268,–90.630411
AR,5033,Crawford,Van Buren,"61,948","1,536.11",593.094,28.874,11.148,"1,564.98",604.242,35.583041,–94.236224
AR,5035,Crittenden,Marion,"50,902","1,579.27",609.76,68.939,26.617,"1,648.21",636.377,35.211878,–90.315331
AR,5037,Cross,Wynne,"17,870","1,596.42",616.381,15.349,5.926,"1,611.77",622.307,35.291259,–90.773894
AR,5039,Dallas,Fordyce,"8,116","1,728.52",667.386,1.864,0.72,"1,730.39",668.106,33.967823,–92.653999
AR,5041,Desha,Arkansas City,"13,008","1,989.50",768.152,133.058,51.374,"2,122.56",819.526,33.828748,–91.244427
AR,5043,Drew,Monticello,"18,509","2,145.43",828.356,18.921,7.305,"2,164.35",835.661,33.587242,–91.722778
AR,5045,Faulkner,Conway,"113,237","1,678.01",647.884,41.927,16.188,"1,719.94",664.072,35.146356,–92.324654
AR,5047,Franklin,"Charleston, Ozark","18,125","1,576.93",608.857,27.934,10.785,"1,604.87",619.642,35.508573,–93.887672
AR,5049,Fulton,Salem,"12,245","1,601.11",618.194,5.527,2.134,"1,606.64",620.328,36.383443,–91.819239
AR,5051,Garland,Hot Springs,"96,024","1,755.45",677.781,147.214,56.84,"1,902.66",734.621,34.578861,–93.146915
AR,5053,Grant,Sheridan,"17,853","1,636.38",631.809,2.904,1.121,"1,639.28",632.93,34.288063,–92.423984
AR,5055,Greene,Paragould,"42,090","1,496.23",577.699,4.827,1.864,"1,501.06",579.563,36.119922,–90.565241
AR,5057,Hempstead,Hope,"22,609","1,884.27",727.52,35.372,13.657,"1,919.64",741.177,33.728611,–93.665809
AR,5059,Hot Spring,Malvern,"32,923","1,593.37",615.202,18.053,6.97,"1,611.42",622.172,34.315177,–92.944147
AR,5061,Howard,Nashville,"13,789","1,524.35",588.554,17.509,6.76,"1,541.86",595.314,34.083179,–93.990988
AR,5063,Independence,Batesville,"36,647","1,978.63",763.953,19.594,7.565,"1,998.22",771.518,35.737499,–91.559942
AR,5065,Izard,Melbourne,"13,696","1,503.69",580.577,8.913,3.441,"1,512.60",584.018,36.094879,–91.913625
AR,5067,Jackson,Newport,"17,997","1,641.89",633.938,19.588,7.563,"1,661.48",641.501,35.596605,–91.223178
AR,5069,Jefferson,Pine Bluff,"77,435","2,255.22",870.746,111.448,43.03,"2,366.67",913.776,34.277696,–91.930701
AR,5071,Johnson,Clarksville,"25,540","1,708.88",659.804,59.416,22.94,"1,768.30",682.744,35.573359,–93.466322
AR,5073,Lafayette,Lewisville,"7,645","1,368.21",528.268,43.539,16.811,"1,411.75",545.079,33.24066,–93.611643
AR,5075,Lawrence,Walnut Ridge,"17,415","1,521.91",587.614,12.245,4.728,"1,534.16",592.342,36.041098,–91.101153
AR,5077,Lee,Marianna,"10,424","1,560.78",602.621,43.722,16.881,"1,604.50",619.502,34.77975,–90.779288
AR,5079,Lincoln,Star City,"14,134","1,454.32",561.517,27.631,10.668,"1,481.95",572.185,33.957665,–91.727624
AR,5081,Little River,Ashdown,"13,171","1,378.53",532.253,84.208,32.513,"1,462.74",564.766,33.699497,–94.229774
AR,5083,Logan,"Booneville, Paris","22,353","1,834.03",708.125,60.696,23.435,"1,894.73",731.56,35.21855,–93.720563
AR,5085,Lonoke,Lonoke,"68,356","1,996.18",770.728,83.17,32.112,"2,079.35",802.84,34.755114,–91.894132
AR,5087,Madison,Huntsville,"15,717","2,160.71",834.255,7.316,2.825,"2,168.03",837.08,36.012545,–93.724053
AR,5089,Marion,Yellville,"16,653","1,546.25",597.009,112.175,43.311,"1,658.42",640.32,36.266656,–92.678588
AR,5091,Miller,Texarkana,"43,462","1,620.24",625.578,31.264,12.071,"1,651.50",637.649,33.305505,–93.901509
AR,5093,Mississippi,"Blytheville, Osceola","46,480","2,332.48",900.574,49.826,19.238,"2,382.30",919.812,35.766943,–90.052209
AR,5095,Monroe,Clarendon,"8,149","1,572.44",607.122,36.715,14.176,"1,609.15",621.298,34.679513,–91.203314
AR,5097,Montgomery,Mount Ida,"9,487","2,019.88",779.88,52.86,20.409,"2,072.74",800.289,34.545652,–93.664147
AR,5099,Nevada,Prescott,"8,997","1,600.19",617.837,7.258,2.802,"1,607.45",620.639,33.666699,–93.305072
AR,5101,Newton,Jasper,"8,330","2,126.11",820.896,5.932,2.29,"2,132.04",823.186,35.910063,–93.215084
AR,5103,Ouachita,Camden,"26,120","1,897.90",732.783,18.05,6.969,"1,915.95",739.752,33.591158,–92.878418
AR,5105,Perry,Perryville,"10,445","1,428.13",551.402,23.649,9.131,"1,451.78",560.533,34.946363,–92.926877
AR,5107,Phillips,Helena-West Helena,"21,757","1,801.76",695.663,82.056,31.682,"1,883.81",727.345,34.425842,–90.848386
AR,5109,Pike,Murfreesboro,"11,291","1,555.59",600.618,34.996,13.512,"1,590.59",614.13,34.158191,–93.658659
AR,5111,Poinsett,Harrisburg,"24,583","1,964.22",758.389,13.523,5.221,"1,977.74",763.61,35.568981,–90.680595
AR,5113,Polk,Mena,"20,662","2,221.38",857.679,12.387,4.783,"2,233.77",862.462,34.490915,–94.230884
AR,5115,Pope,Russellville,"61,754","2,104.49",812.548,47.207,18.227,"2,151.70",830.775,35.455297,–93.031535
AR,5117,Prairie,"Des Arc, De Valls Bluff","8,715","1,678.20",647.958,71.629,27.656,"1,749.83",675.614,34.828225,–91.557200
AR,5119,Pulaski,Little Rock,"382,748","1,967.78",759.763,124.062,47.9,"2,091.84",807.663,34.773988,–92.316515
AR,5121,Randolph,Pocahontas,"17,969","1,689.17",652.191,9.968,3.849,"1,699.13",656.04,36.341299,–91.028441
AR,5123,St. Francis,Forrest City,"28,258","1,644.05",634.771,20.05,7.741,"1,664.10",642.512,35.014438,–90.742199
AR,5125,Saline,Benton,"107,118","1,874.13",723.604,17.836,6.886,"1,891.96",730.49,34.648525,–92.674463
AR,5127,Scott,Waldron,"11,233","2,311.10",892.32,14.901,5.753,"2,326.00",898.073,34.858869,–94.063641
AR,5129,Searcy,Marshall,"8,195","1,725.18",666.095,6.257,2.416,"1,731.43",668.511,35.90966,–92.699351
AR,5131,Sebastian,"Greenwood, Fort Smith","125,744","1,377.64",531.911,36.906,14.249,"1,414.55",546.16,35.196981,–94.274989
AR,5133,Sevier,De Queen,"17,058","1,463.67",565.126,41.831,16.151,"1,505.50",581.277,33.994608,–94.243290
AR,5135,Sharp,Ash Flat,"17,264","1,565.49",604.439,5.173,1.997,"1,570.66",606.436,36.173399,–91.471069
AR,5137,Stone,Mountain View,"12,394","1,570.58",606.405,7.839,3.027,"1,578.42",609.432,35.856989,–92.140494
AR,5139,Union,El Dorado,"41,639","2,691.55","1,039.21",41.402,15.985,"2,732.95","1,055.20",33.168219,–92.598145
AR,5141,Van Buren,Clinton,"17,295","1,834.08",708.143,41.806,16.141,"1,875.89",724.284,35.582959,–92.515977
AR,5143,Washington,Fayetteville,"203,065","2,439.68",941.966,27.047,10.443,"2,466.73",952.409,35.971209,–94.218417
AR,5145,White,Searcy,"77,076","2,680.83","1,035.08",18.311,7.07,"2,699.14","1,042.15",35.254722,–91.753158
AR,5147,Woodruff,Augusta,"7,260","1,519.78",586.791,18.708,7.223,"1,538.49",594.014,35.189071,–91.244418
AR,5149,Yell,"Dardanelle, Danville","22,185","2,408.65",929.984,48.88,18.873,"2,457.53",948.857,34.997713,–93.408303
CA,6001,Alameda,Oakland,"1,510,271","1,914.05",739.017,213.185,82.311,"2,127.23",821.328,37.648081,–121.913304
CA,6003,Alpine,Markleeville,"1,175","1,912.27",738.332,12.557,4.848,"1,924.83",743.18,38.61761,–119.798999
CA,6005,Amador,Jackson,"38,091","1,539.96",594.583,29.457,11.373,"1,569.42",605.956,38.44355,–120.653856
CA,6007,Butte,Oroville,"220,000","4,238.42","1,636.46",105.326,40.667,"4,343.75","1,677.13",39.665959,–121.601919
CA,6009,Calaveras,San Andreas,"45,578","2,641.82","1,020.01",43.81,16.915,"2,685.63","1,036.93",38.187844,–120.555115
CA,6011,Colusa,Colusa,"21,419","2,980.38","1,150.73",14.581,5.63,"2,994.96","1,156.36",39.177739,–122.237563
CA,6013,Contra Costa,Martinez,"1,049,025","1,854.27",715.937,227.485,87.833,"2,081.75",803.77,37.919479,–121.951543
CA,6015,Del Norte,Crescent City,"28,610","2,606.49","1,006.37",578.526,223.37,"3,185.02","1,229.74",41.749903,–123.980998
CA,6017,El Dorado,Placerville,"181,058","4,423.40","1,707.88",203.243,78.473,"4,626.64","1,786.36",38.785532,–120.534398
CA,6019,Fresno,Fresno,"930,450","15,431.13","5,957.99",137.816,53.211,"15,568.94","6,011.20",36.761006,–119.655019
CA,6021,Glenn,Willows,"28,122","3,403.11","1,313.95",33.75,13.031,"3,436.86","1,326.98",39.602546,–122.401700
CA,6023,Humboldt,Eureka,"134,623","9,241.05","3,567.99","1,254.26",484.271,"10,495.30","4,052.26",40.706673,–123.925818
CA,6025,Imperial,El Centro,"174,528","10,817.35","4,176.60",790.248,305.116,"11,607.60","4,481.72",33.040816,–115.355395
CA,6027,Inyo,Independence,"18,546","26,368.35","10,180.88",119.208,46.026,"26,487.56","10,226.91",36.561977,–117.403927
CA,6029,Kern,Bakersfield,"839,631","21,061.57","8,131.92",79.577,30.725,"21,141.14","8,162.64",35.346629,–118.729506
CA,6031,Kings,Hanford,"152,982","3,598.58","1,389.42",5.469,2.111,"3,604.05","1,391.53",36.072478,–119.815530
CA,6033,Lake,Lakeport,"64,665","3,254.23","1,256.46",188.962,72.959,"3,443.19","1,329.42",39.094802,–122.746757
CA,6035,Lassen,Susanville,"34,895","11,761.61","4,541.18",463.441,178.935,"12,225.05","4,720.12",40.721089,–120.629931
CA,6037,Los Angeles,Los Angeles,"9,818,605","10,509.87","4,057.88","1,795.01",693.058,"12,304.88","4,750.94",34.196398,–118.261862
CA,6039,Madera,Madera,"150,865","5,534.98","2,137.07",41.958,16.2,"5,576.94","2,153.27",37.210039,–119.749852
CA,6041,Marin,San Rafael,"252,409","1,347.59",520.306,797.42,307.886,"2,145.01",828.192,38.051817,–122.745974
CA,6043,Mariposa,Mariposa,"18,251","3,752.42","1,448.82",36.271,14.004,"3,788.69","1,462.82",37.570034,–119.912860
CA,6045,Mendocino,Ukiah,"87,841","9,081.39","3,506.34",962.953,371.798,"10,044.34","3,878.14",39.432388,–123.442881
CA,6047,Merced,Merced,"255,793","5,011.56","1,934.97",112.76,43.537,"5,124.32","1,978.51",37.194806,–120.722802
CA,6049,Modoc,Alturas,"9,686","10,146.98","3,917.77",739.774,285.629,"10,886.75","4,203.40",41.592919,–120.718370
CA,6051,Mono,Bridgeport,"14,202","7,896.83","3,048.98",214.695,82.894,"8,111.52","3,131.88",37.915836,–118.875167
CA,6053,Monterey,Salinas,"415,057","8,496.70","3,280.60","1,270.71",490.626,"9,767.42","3,771.22",36.240107,–121.315573
CA,6055,Napa,Napa,"136,484","1,938.25",748.362,104.169,40.22,"2,042.42",788.582,38.507351,–122.325995
CA,6057,Nevada,Nevada City,"98,764","2,480.62",957.772,41.515,16.029,"2,522.13",973.801,39.295191,–120.773446
CA,6059,Orange,Santa Ana,"3,010,232","2,047.56",790.568,407.917,157.498,"2,455.48",948.066,33.675687,–117.777207
CA,6061,Placer,Auburn,"348,432","3,644.14","1,407.01",247.205,95.447,"3,891.34","1,502.46",39.062032,–120.722718
CA,6063,Plumas,Quincy,"20,007","6,612.35","2,553.04",156.395,60.385,"6,768.75","2,613.43",39.99517,–120.829516
CA,6065,Riverside,Riverside,"2,189,641","18,664.70","7,206.48",251.073,96.94,"18,915.77","7,303.42",33.729828,–116.002239
CA,6067,Sacramento,Sacramento,"1,418,788","2,498.42",964.644,76.077,29.374,"2,574.49",994.018,38.450011,–121.340441
CA,6069,San Benito,Hollister,"55,269","3,596.74","1,388.71",4.555,1.759,"3,601.30","1,390.47",36.610702,–121.085296
CA,6071,San Bernardino,San Bernardino,"2,035,210","51,947.23","20,056.94",124.028,47.888,"52,071.26","20,104.83",34.85722,–116.181197
CA,6073,San Diego,San Diego,"3,095,313","10,895.12","4,206.63",826.348,319.055,"11,721.47","4,525.69",33.023604,–116.776117
CA,6075,San Francisco,San Francisco,"805,235",121.4,46.873,479.19,185.016,600.59,231.889,37.727239,–123.032229
CA,6077,San Joaquin,Stockton,"685,306","3,603.51","1,391.32",91.109,35.177,"3,694.62","1,426.50",37.935034,–121.272237
CA,6079,San Luis Obispo,San Luis Obispo,"269,637","8,543.25","3,298.57",820.975,316.98,"9,364.22","3,615.55",35.385227,–120.447540
CA,6081,San Mateo,Redwood City,"718,451","1,161.37",448.408,757.704,292.551,"1,919.08",740.959,37.414664,–122.371542
CA,6083,Santa Barbara,Santa Barbara,"423,895","7,083.84","2,735.09","2,729.83","1,053.99","9,813.67","3,789.08",34.537378,–120.038485
CA,6085,Santa Clara,San Jose,"1,781,642","3,341.34","1,290.10",36.175,13.967,"3,377.52","1,304.07",37.220777,–121.690622
CA,6087,Santa Cruz,Santa Cruz,"262,382","1,152.99",445.17,419.569,161.996,"1,572.56",607.166,37.012488,–122.007205
CA,6089,Shasta,Redding,"177,223","9,778.25","3,775.40",186.531,72.02,"9,964.78","3,847.42",40.760522,–122.043550
CA,6091,Sierra,Downieville,"3,240","2,468.81",953.214,23.299,8.996,"2,492.11",962.21,39.576925,–120.521993
CA,6093,Siskiyou,Yreka,"44,900","16,259.65","6,277.89",179.889,69.456,"16,439.54","6,347.34",41.587986,–122.533287
CA,6095,Solano,Fairfield,"413,344","2,128.36",821.765,218.666,84.427,"2,347.03",906.192,38.267226,–121.939594
CA,6097,Sonoma,Santa Rosa,"483,878","4,081.43","1,575.85",497.53,192.098,"4,578.96","1,767.95",38.532574,–122.945194
CA,6099,Stanislaus,Modesto,"514,453","3,871.58","1,494.83",51.437,19.86,"3,923.02","1,514.69",37.562384,–121.002656
CA,6101,Sutter,Yuba City,"94,737","1,560.24",602.41,15.747,6.08,"1,575.98",608.49,39.035257,–121.702758
CA,6103,Tehama,Red Bluff,"63,463","7,639.71","2,949.71",32.276,12.462,"7,671.99","2,962.17",40.126156,–122.232276
CA,6105,Trinity,Weaverville,"13,786","8,234.23","3,179.25",73.408,28.343,"8,307.64","3,207.60",40.647724,–123.114404
CA,6107,Tulare,Visalia,"442,179","12,494.66","4,824.22",37.392,14.437,"12,532.05","4,838.65",36.230453,–118.780542
CA,6109,Tuolumne,Sonora,"55,365","5,752.06","2,220.88",138.684,53.546,"5,890.75","2,274.43",38.021451,–119.964708
CA,6111,Ventura,Ventura,"823,318","4,773.69","1,843.13",945.992,365.249,"5,719.68","2,208.38",34.358742,–119.133143
CA,6113,Yolo,Woodland,"200,849","2,628.03","1,014.69",22.969,8.868,"2,651.00","1,023.56",38.679268,–121.903178
CA,6115,Yuba,Marysville,"72,155","1,636.45",631.839,30.999,11.969,"1,667.45",643.808,39.270026,–121.344280
CO,8001,Adams,Brighton,"441,603","3,024.21","1,167.65",42.07,16.243,"3,066.28","1,183.90",39.874325,–104.331872
CO,8003,Alamosa,Alamosa,"15,445","1,871.64",722.643,1.808,0.698,"1,873.45",723.341,37.568442,–105.788041
CO,8005,Arapahoe,Littleton,"572,003","2,067.07",798.1,19.004,7.337,"2,086.07",805.437,39.644632,–104.331733
CO,8007,Archuleta,Pagosa Springs,"12,084","3,496.94","1,350.18",13.828,5.339,"3,510.77","1,355.51",37.202395,–107.050863
CO,8009,Baca,Springfield,"3,788","6,617.33","2,554.97",6.142,2.372,"6,623.48","2,557.34",37.303144,–102.535457
CO,8011,Bent,Las Animas,"6,499","3,918.29","1,512.86",73.094,28.222,"3,991.39","1,541.08",37.931891,–103.077584
CO,8013,Boulder,Boulder,"294,567","1,881.08",726.289,36.469,14.081,"1,917.55",740.37,40.094826,–105.398382
CO,8014,Broomfield,Broomfield,"55,889",85.558,33.034,1.466,0.566,87.024,33.6,39.953383,–105.052125
CO,8015,Chaffee,Salida,"17,809","2,624.70","1,013.40",4.013,1.55,"2,628.72","1,014.95",38.738246,–106.316972
CO,8017,Cheyenne,Cheyenne Wells,"1,836","4,605.71","1,778.28",8.166,3.153,"4,613.88","1,781.43",38.835387,–102.604585
CO,8019,Clear Creek,Georgetown,"9,088","1,023.63",395.227,3.28,1.266,"1,026.91",396.493,39.689403,–105.670791
CO,8021,Conejos,Conejos,"8,256","3,334.33","1,287.39",9.235,3.566,"3,343.56","1,290.96",37.213407,–106.176447
CO,8023,Costilla,San Luis,"3,524","3,177.79","1,226.95",8.829,3.409,"3,186.62","1,230.36",37.277547,–105.428940
CO,8025,Crowley,Ordway,"5,823","2,039.41",787.421,33.43,12.908,"2,072.84",800.329,38.321956,–103.787562
CO,8027,Custer,Westcliffe,"4,255","1,913.03",738.625,3.365,1.299,"1,916.40",739.924,38.101994,–105.373515
CO,8029,Delta,Delta,"30,952","2,957.90","1,142.05",16.961,6.549,"2,974.86","1,148.60",38.861756,–107.864757
CO,8031,Denver,Denver,"600,158",396.269,153,4.225,1.631,400.494,154.631,39.761849,–104.880625
CO,8033,Dolores,Dove Creek,"2,064","2,763.65","1,067.05",2.716,1.049,"2,766.37","1,068.10",37.747602,–108.530383
CO,8035,Douglas,Castle Rock,"285,465","2,176.23",840.248,6.789,2.621,"2,183.02",842.869,39.326435,–104.926199
CO,8037,Eagle,Eagle,"52,197","4,362.91","1,684.53",18.806,7.261,"4,381.72","1,691.79",39.630638,–106.692944
CO,8039,Elbert,Colorado Springs,"23,086","4,793.67","1,850.85",0.442,0.171,"4,794.11","1,851.02",39.310817,–104.117928
CO,8041,El Paso,Kiowa,"622,263","5,508.39","2,126.80",7.112,2.746,"5,515.50","2,129.55",38.827383,–104.527472
CO,8043,Fremont,Cañon City,"46,824","3,970.63","1,533.07",2.235,0.863,"3,972.86","1,533.93",38.455658,–105.421438
CO,8045,Garfield,Glenwood Springs,"56,389","7,634.15","2,947.56",21.431,8.274,"7,655.58","2,955.84",39.599352,–107.909780
CO,8047,Gilpin,Central City,"5,441",388.229,149.896,0.942,0.364,389.171,150.26,39.861082,–105.528947
CO,8049,Grand,Hot Sulphur Springs,"14,843","4,781.97","1,846.33",60.25,23.263,"4,842.22","1,869.59",40.123289,–106.095876
CO,8051,Gunnison,Gunnison,"15,324","8,389.23","3,239.10",53.172,20.53,"8,442.40","3,259.63",38.669679,–107.078108
CO,8053,Hinsdale,Lake City,843,"2,893.67","1,117.25",15.325,5.917,"2,908.99","1,123.17",37.811625,–107.383405
CO,8055,Huerfano,Walsenburg,"6,711","4,120.67","1,591.00",5.792,2.236,"4,126.47","1,593.24",37.687815,–104.959928
CO,8057,Jackson,Walden,"1,394","4,179.52","1,613.72",18.75,7.239,"4,198.27","1,620.96",40.663432,–106.329248
CO,8059,Jefferson,Golden,"534,543","1,979.29",764.208,25.446,9.825,"2,004.74",774.033,39.58646,–105.245601
CO,8061,Kiowa,Eads,"1,398","4,578.50","1,767.77",47.033,18.16,"4,625.53","1,785.93",38.388466,–102.756210
CO,8063,Kit Carson,Burlington,"8,270","5,596.50","2,160.82",2.252,0.869,"5,598.75","2,161.69",39.30534,–102.603023
CO,8065,Lake,Durango,"7,310",976.194,376.911,18.124,6.998,994.319,383.909,39.204316,–106.349696
CO,8067,La Plata,Leadville,"51,334","4,382.46","1,692.08",19.76,7.629,"4,402.22","1,699.71",37.287367,–107.839718
CO,8069,Larimer,Fort Collins,"299,630","6,723.61","2,596.00",98.295,37.952,"6,821.91","2,633.95",40.663091,–105.482131
CO,8071,Las Animas,Trinidad,"15,507","12,361.16","4,772.67",6.93,2.676,"12,368.09","4,775.35",37.318831,–104.044110
CO,8073,Lincoln,Hugo,"5,467","6,676.02","2,577.63",22.781,8.796,"6,698.80","2,586.42",38.99374,–103.507555
CO,8075,Logan,Sterling,"22,709","4,761.81","1,838.55",16.364,6.318,"4,778.18","1,844.87",40.728091,–103.090464
CO,8077,Mesa,Grand Junction,"146,723","8,622.00","3,328.97",31.467,12.149,"8,653.47","3,341.12",39.019492,–108.461837
CO,8079,Mineral,Creede,712,"2,267.97",875.666,5.222,2.016,"2,273.19",877.682,37.651478,–106.932300
CO,8081,Moffat,Craig,"13,795","12,285.07","4,743.29",19.742,7.622,"12,304.81","4,750.91",40.573984,–108.204521
CO,8083,Montezuma,Cortez,"25,535","5,256.45","2,029.53",27.517,10.624,"5,283.97","2,040.15",37.338025,–108.595786
CO,8085,Montrose,Montrose,"41,276","5,803.37","2,240.70",4.923,1.901,"5,808.30","2,242.60",38.413427,–108.263042
CO,8087,Morgan,Fort Morgan,"28,159","3,316.31","1,280.43",34.474,13.31,"3,350.78","1,293.74",40.262354,–103.807092
CO,8089,Otero,La Junta,"18,831","3,268.47","1,261.96",20.052,7.742,"3,288.52","1,269.70",37.88417,–103.721260
CO,8091,Ouray,Ouray,"4,436","1,402.72",541.593,1.6,0.618,"1,404.32",542.211,38.1506,–107.767133
CO,8093,Park,Fairplay,"16,206","5,682.03","2,193.85",43.531,16.807,"5,725.57","2,210.65",39.118914,–105.717648
CO,8095,Phillips,Holyoke,"4,442","1,781.73",687.928,0.302,0.117,"1,782.03",688.045,40.594712,–102.345105
CO,8097,Pitkin,Aspen,"17,148","2,514.09",970.697,6.469,2.498,"2,520.56",973.195,39.217533,–106.915943
CO,8099,Prowers,Lamar,"12,551","4,243.42","1,638.40",15.353,5.928,"4,258.78","1,644.32",37.958181,–102.392161
CO,8101,Pueblo,Pueblo,"159,063","6,179.98","2,386.10",30.28,11.691,"6,210.26","2,397.80",38.170658,–104.489893
CO,8103,Rio Blanco,Meeker,"6,666","8,342.18","3,220.93",4.868,1.88,"8,347.05","3,222.81",39.972606,–108.200685
CO,8105,Rio Grande,Del Norte,"11,982","2,361.96",911.958,0.984,0.38,"2,362.94",912.338,37.485763,–106.453214
CO,8107,Routt,Steamboat Springs,"23,509","6,117.62","2,362.03",15.826,6.11,"6,133.45","2,368.14",40.48316,–106.985289
CO,8109,Saguache,Saguache,"6,108","8,206.44","3,168.53",4.455,1.72,"8,210.90","3,170.25",38.033952,–106.246675
CO,8111,San Juan,Silverton,699,"1,003.59",387.488,2.036,0.786,"1,005.62",388.274,37.781075,–107.670257
CO,8113,San Miguel,Telluride,"7,359","3,332.31","1,286.61",5.214,2.013,"3,337.52","1,288.62",38.009374,–108.427326
CO,8115,Sedgwick,Julesburg,"2,379","1,419.42",548.041,3.531,1.363,"1,422.95",549.404,40.871568,–102.355358
CO,8117,Summit,Breckenridge,"27,994","1,575.64",608.358,28.283,10.92,"1,603.92",619.278,39.621023,–106.137555
CO,8119,Teller,Cripple Creek,"23,350","1,442.77",557.055,4.945,1.909,"1,447.71",558.964,38.871994,–105.182552
CO,8121,Washington,Akron,"4,814","6,521.67","2,518.03",15.207,5.872,"6,536.88","2,523.90",39.965413,–103.209605
CO,8123,Weld,Greeley,"252,825","10,326.90","3,987.24",76.554,29.558,"10,403.45","4,016.80",40.555794,–104.383649
CO,8125,Yuma,Wray,"10,043","6,123.78","2,364.41",11.135,4.299,"6,134.92","2,368.70",40.000631,–102.422649
CT,9001,Fairfield [6],Bridgeport [6],"916,829","1,618.46",624.89,549.162,212.033,"2,167.62",836.923,41.228103,–73.366757
CT,9003,Hartford [6],Hartford [6],"894,014","1,903.89",735.097,40.213,15.527,"1,944.11",750.624,41.806053,–72.732916
CT,9005,Litchfield [6],Litchfield [6],"189,927","2,384.24",920.56,62.166,24.002,"2,446.41",944.562,41.791897,–73.235428
CT,9007,Middlesex [6],Middletown [6],"165,676",956.486,369.301,180.684,69.762,"1,137.17",439.063,41.434525,–72.524227
CT,9009,New Haven [6],New Haven [6],"862,477","1,565.66",604.506,667.053,257.551,"2,232.72",862.057,41.349717,–72.900204
CT,9011,New London [6],New London [6],"274,055","1,722.03",664.878,276.666,106.821,"1,998.69",771.699,41.47863,–72.103452
CT,9013,Tolland [6],Rockville [6],"152,691","1,062.45",410.214,17.698,6.833,"1,080.15",417.047,41.858076,–72.340977
CT,9015,Windham [6],Willimantic [6],"118,428","1,328.43",512.91,22.092,8.53,"1,350.52",521.44,41.824999,–71.990702
DE,10001,Kent,Dover,"162,310","1,518.20",586.179,549.471,212.152,"2,067.67",798.331,39.097088,–75.502982
DE,10003,New Castle,Wilmington,"538,479","1,104.08",426.286,175.386,67.717,"1,279.46",494.003,39.575915,–75.644132
DE,10005,Sussex,Georgetown,"197,145","2,424.43",936.079,674.205,260.312,"3,098.64","1,196.39",38.677511,–75.335495
DC,11001,District of Columbia [7],Washington [7],"601,723",158.115,61.048,18.885,7.292,177,68.34,38.904149,–77.017094
FL,12001,Alachua,Gainesville,"247,336","2,266.29",875.02,242.911,93.788,"2,509.20",968.808,29.67574,–82.357221
FL,12003,Baker,Macclenny,"27,115","1,515.74",585.231,9.686,3.74,"1,525.43",588.971,30.324442,–82.302284
FL,12005,Bay,Panama City,"168,852","1,964.40",758.459,711.453,274.694,"2,675.85","1,033.15",30.237563,–85.631348
FL,12007,Bradford,Starke,"28,520",761.357,293.962,16.905,6.527,778.262,300.489,29.946934,–82.166796
FL,12009,Brevard,Titusville,"543,376","2,630.56","1,015.66","1,402.04",541.331,"4,032.60","1,557.00",28.298276,–80.700384
FL,12011,Broward,Fort Lauderdale,"1,748,066","3,133.33","1,209.79",292.869,113.077,"3,426.20","1,322.86",26.19352,–80.476658
FL,12013,Calhoun,Blountstown,"14,625","1,469.39",567.334,18.075,6.979,"1,487.46",574.313,30.388801,–85.197916
FL,12015,Charlotte,Punta Gorda,"159,978","1,761.91",680.279,461.075,178.022,"2,222.99",858.301,26.868826,–81.940858
FL,12017,Citrus,Inverness,"141,236","1,506.59",581.696,496.236,191.598,"2,002.82",773.294,28.843628,–82.524796
FL,12019,Clay,Green Cove Springs,"190,865","1,565.29",604.36,101.496,39.188,"1,666.78",643.548,29.987116,–81.858147
FL,12021,Collier,East Naples,"321,520","5,175.64","1,998.32",794.325,306.691,"5,969.96","2,305.02",26.118713,–81.400884
FL,12023,Columbia,Lake City,"67,531","2,065.71",797.574,9.723,3.754,"2,075.43",801.328,30.221305,–82.623127
FL,12027,DeSoto,Arcadia,"34,862","1,649.98",637.059,6.275,2.423,"1,656.25",639.482,27.190581,–81.806253
FL,12029,Dixie,Cross City,"16,422","1,826.08",705.053,410.764,158.597,"2,236.84",863.65,29.580899,–83.195666
FL,12031,Duval,Jacksonville,"864,263","1,974.07",762.192,404.713,156.26,"2,378.78",918.452,30.335245,–81.648113
FL,12033,Escambia,Pensacola,"297,619","1,700.23",656.461,565.247,218.243,"2,265.47",874.704,30.611664,–87.339040
FL,12035,Flagler,Bunnell,"95,696","1,257.34",485.461,221.091,85.364,"1,478.43",570.825,29.474894,–81.286362
FL,12037,Franklin,Apalachicola,"11,549","1,384.93",534.725,"1,273.68",491.769,"2,658.61","1,026.49",29.810176,–84.799174
FL,12039,Gadsden,Quincy,"46,389","1,337.29",516.332,31.588,12.196,"1,368.88",528.528,30.57917,–84.612783
FL,12041,Gilchrist,Trenton,"16,939",905.659,349.677,14.406,5.562,920.064,355.239,29.723456,–82.795801
FL,12043,Glades,Moore Haven,"12,884","2,087.55",806.009,468.371,180.839,"2,555.93",986.848,26.95481,–81.190820
FL,12045,Gulf,Port St. Joe,"15,863","1,460.79",564.012,496.109,191.549,"1,956.89",755.561,29.907257,–85.256537
FL,12047,Hamilton,Jasper,"14,799","1,330.71",513.79,13.638,5.266,"1,344.35",519.056,30.491102,–82.951049
FL,12049,Hardee,Wauchula,"27,731","1,651.85",637.783,1.44,0.556,"1,653.29",638.339,27.492846,–81.821580
FL,12051,Hendry,LaBelle,"39,140","2,985.61","1,152.75",96.465,37.246,"3,082.08","1,190.00",26.53934,–81.151584
FL,12053,Hernando,Brooksville,"172,778","1,223.87",472.539,301.689,116.483,"1,525.56",589.022,28.567911,–82.464835
FL,12055,Highlands,Sebring,"98,786","2,633.02","1,016.62",231.596,89.42,"2,864.62","1,106.04",27.342627,–81.340921
FL,12057,Hillsborough,Tampa,"1,229,226","2,642.34","1,020.21",635.973,245.551,"3,278.31","1,265.77",27.90659,–82.349568
FL,12059,Holmes,Bonifay,"19,927","1,240.03",478.777,26.599,10.27,"1,266.63",489.047,30.866222,–85.812959
FL,12061,Indian River,Vero Beach,"138,028","1,302.43",502.872,295.606,114.134,"1,598.04",617.006,27.700638,–80.574803
FL,12063,Jackson,Marianna,"49,746","2,376.99",917.76,95.322,36.804,"2,472.31",954.564,30.787812,–85.210374
FL,12065,Jefferson,Monticello,"14,761","1,549.06",598.095,99.559,38.44,"1,648.62",636.535,30.424558,–83.890859
FL,12067,Lafayette,Mayo,"8,870","1,407.43",543.411,11.646,4.497,"1,419.08",547.908,29.990066,–83.178510
FL,12069,Lake,Tavares,"297,052","2,430.40",938.381,566.127,218.583,"2,996.52","1,156.96",28.764113,–81.712282
FL,12071,Lee,Fort Myers,"618,754","2,031.88",784.513,"1,108.38",427.948,"3,140.26","1,212.46",26.552134,–81.892250
FL,12073,Leon,Tallahassee,"275,487","1,727.14",666.852,90.487,34.937,"1,817.63",701.789,30.45931,–84.277800
FL,12075,Levy,Bronson,"40,801","2,896.14","1,118.21",762.981,294.589,"3,659.12","1,412.80",29.284409,–82.783483
FL,12077,Liberty,Bristol,"8,365","2,164.10",835.562,19.583,7.561,"2,183.68",843.123,30.259849,–84.868581
FL,12079,Madison,Madison,"19,224","1,802.50",695.948,51.114,19.735,"1,853.61",715.683,30.447228,–83.470437
FL,12081,Manatee,Bradenton,"322,833","1,924.18",742.931,387.845,149.748,"2,312.03",892.679,27.481386,–82.365784
FL,12083,Marion,Ocala,"331,298","4,103.96","1,584.55",202.185,78.064,"4,306.14","1,662.61",29.202805,–82.043100
FL,12085,Martin,Stuart,"146,318","1,407.57",543.464,542.252,209.365,"1,949.82",752.829,27.079954,–80.398211
FL,12086,Miami-Dade,Miami,"2,496,435","4,915.06","1,897.72","1,381.67",533.467,"6,296.73","2,431.18",25.610494,–80.499045
FL,12087,Monroe,Key West,"73,090","2,546.69",983.282,"7,133.45","2,754.24","9,680.14","3,737.52",25.601043,–81.206777
FL,12089,Nassau,Fernandina Beach,"73,314","1,679.97",648.639,200.159,77.282,"1,880.13",725.921,30.605926,–81.764929
FL,12091,Okaloosa,Crestview,"180,822","2,409.33",930.247,393.241,151.831,"2,802.57","1,082.08",30.665858,–86.594194
FL,12093,Okeechobee,Okeechobee,"39,996","1,991.46",768.908,318.565,122.999,"2,310.03",891.907,27.385592,–80.887388
FL,12095,Orange,Orlando,"1,145,956","2,339.87",903.429,258.561,99.831,"2,598.43","1,003.26",28.514435,–81.323295
FL,12097,Osceola,Kissimmee,"268,685","3,438.09","1,327.45",462.192,178.453,"3,900.28","1,505.91",28.059027,–81.139312
FL,12099,Palm Beach,West Palm Beach,"1,320,134","5,101.66","1,969.76","1,070.30",413.246,"6,171.97","2,383.01",26.645763,–80.448673
FL,12101,Pasco,Dade City,"464,697","1,934.43",746.886,314.859,121.568,"2,249.29",868.454,28.302024,–82.455707
FL,12103,Pinellas,Clearwater,"916,542",709.136,273.799,865.906,334.328,"1,575.04",608.127,27.903122,–82.739518
FL,12105,Polk,Bartow,"602,095","4,656.38","1,797.84",550.926,212.714,"5,207.30","2,010.55",27.953115,–81.692783
FL,12107,Putnam,Palatka,"74,364","1,884.53",727.622,257.184,99.299,"2,141.72",826.921,29.606006,–81.740894
FL,12109,St. Johns,Milton,"190,039","1,555.69",600.655,572.051,220.87,"2,127.74",821.525,29.890593,–81.383914
FL,12111,St. Lucie,Sarasota,"277,789","1,481.28",571.926,300.907,116.181,"1,782.19",688.107,27.380775,–80.443364
FL,12113,Santa Rosa,Sanford,"151,372","2,620.04","1,011.61",420.026,162.173,"3,040.07","1,173.78",30.703633,–87.014255
FL,12115,Sarasota,St. Augustine,"379,448","1,439.69",555.868,438.941,169.476,"1,878.63",725.344,27.184386,–82.365835
FL,12117,Seminole,Fort Pierce,"422,718",800.879,309.221,93.428,36.073,894.308,345.294,28.690079,–81.131980
FL,12119,Sumter,Bushnell,"93,420","1,416.55",546.933,85.192,32.893,"1,501.74",579.826,28.714294,–82.074715
FL,12121,Suwannee,Live Oak,"41,551","1,783.34",688.552,9.594,3.704,"1,792.94",692.256,30.189244,–82.992754
FL,12123,Taylor,Perry,"22,570","2,702.15","1,043.31",489.238,188.896,"3,191.39","1,232.20",30.016943,–83.616417
FL,12125,Union,Lake Butler,"15,535",630.806,243.556,16.05,6.197,646.856,249.753,30.05428,–82.366918
FL,12127,Volusia,DeLand,"494,593","2,851.66","1,101.03",858.331,331.404,"3,709.99","1,432.44",29.057617,–81.161813
FL,12129,Wakulla,Crawfordville,"30,776","1,570.62",606.419,334.904,129.307,"1,905.52",735.726,30.140378,–84.375136
FL,12131,Walton,De Funiak Springs,"55,043","2,687.44","1,037.63",523.1,201.97,"3,210.54","1,239.60",30.631211,–86.176614
FL,12133,Washington,Chipley,"24,896","1,509.45",582.803,85.861,33.151,"1,595.31",615.954,30.602217,–85.662797
GA,13001,Appling,Baxley,"18,236","1,313.33",507.081,13.417,5.18,"1,326.75",512.261,31.739712,–82.290103
GA,13003,Atkinson,Pearson,"8,375",878.994,339.382,13.343,5.152,892.338,344.534,31.300562,–82.883614
GA,13005,Bacon,Alma,"11,096",669.708,258.576,70.569,27.247,740.277,285.823,31.563327,–82.387859
GA,13007,Baker,Newton,"3,451",885.63,341.944,18.634,7.195,904.264,349.139,31.319622,–84.454857
GA,13009,Baldwin,Milledgeville,"45,720",667.812,257.844,24.779,9.567,692.591,267.411,33.059532,–83.255362
GA,13011,Banks,Homer,"18,395",601.112,232.091,4.651,1.796,605.763,233.887,34.351922,–83.498441
GA,13013,Barrow,Winder,"69,367",415.199,160.309,6.818,2.632,422.016,162.941,33.992009,–83.712303
GA,13015,Bartow,Cartersville,"100,157","1,190.21",459.544,27.374,10.569,"1,217.59",470.113,34.240918,–84.838188
GA,13017,Ben Hill,Fitzgerald,"17,634",647.809,250.121,9.807,3.787,657.616,253.908,31.740776,–83.147190
GA,13019,Berrien,Nashville,"19,286","1,170.41",451.897,15.503,5.986,"1,185.91",457.883,31.274308,–83.231906
GA,13021,Bibb,Macon,"155,547",646.88,249.762,14.514,5.604,661.394,255.366,32.808844,–83.694193
GA,13023,Bleckley,Cochran,"13,063",559.1,215.87,8.447,3.262,567.548,219.132,32.435403,–83.331717
GA,13025,Brantley,Nahunta,"18,411","1,145.71",442.362,12.536,4.84,"1,158.25",447.202,31.197334,–81.982978
GA,13027,Brooks,Quitman,"16,243","1,276.98",493.046,12.315,4.755,"1,289.30",497.801,30.833696,–83.588971
GA,13029,Bryan,Pembroke,"30,233","1,129.15",435.967,47.887,18.489,"1,177.04",454.456,32.017969,–81.438543
GA,13031,Bulloch,Statesboro,"70,217","1,742.57",672.809,40.963,15.816,"1,783.53",688.625,32.393408,–81.743810
GA,13033,Burke,Waynesboro,"23,316","2,141.84",826.968,20.759,8.015,"2,162.60",834.983,33.063737,–82.003890
GA,13035,Butts,Jackson,"23,655",477.576,184.393,9.448,3.648,487.024,188.041,33.290355,–83.958221
GA,13037,Calhoun,Morgan,"6,694",726.147,280.367,8.316,3.211,734.463,283.578,31.521279,–84.626290
GA,13039,Camden,Woodbine,"50,513","1,587.73",613.025,437.293,168.84,"2,025.02",781.865,30.916358,–81.636516
GA,13043,Candler,Metter,"10,998",629.481,243.044,15.058,5.814,644.539,248.858,32.403986,–82.071446
GA,13045,Carroll,Carrollton,"110,527","1,292.60",499.076,12.328,4.76,"1,304.93",503.836,33.582237,–85.080527
GA,13047,Catoosa,Ringgold,"63,942",419.991,162.159,0.78,0.301,420.771,162.46,34.899393,–85.137353
GA,13049,Charlton,Folkston,"12,171","2,003.55",773.576,22.786,8.798,"2,026.34",782.374,30.779904,–82.139644
GA,13051,Chatham,Savannah,"265,128","1,104.47",426.437,533.086,205.826,"1,637.55",632.263,31.974756,–81.091768
GA,13053,Chattahoochee,Cusseta,"11,267",644.224,248.736,6.293,2.43,650.516,251.166,32.347445,–84.788021
GA,13055,Chattooga,Summerville,"26,015",811.542,313.338,0.571,0.22,812.113,313.558,34.474179,–85.345289
GA,13057,Cherokee,Canton,"214,346","1,092.13",421.674,32.975,12.732,"1,125.10",434.406,34.244317,–84.475057
GA,13059,Clarke,Athens,"116,714",308.728,119.2,4.752,1.835,313.48,121.035,33.952234,–83.367130
GA,13061,Clay,Fort Gaines,"3,183",506.036,195.381,56.599,21.853,562.635,217.234,31.619831,–84.992583
GA,13063,Clayton,Jonesboro,"259,424",366.664,141.57,7.153,2.762,373.817,144.332,33.552242,–84.412977
GA,13065,Clinch,Homerville,"6,798","2,072.57",800.222,61.566,23.771,"2,134.13",823.993,30.917653,–82.702614
GA,13067,Cobb,Marietta,"688,078",879.428,339.549,12.868,4.969,892.297,344.518,33.93994,–84.574166
GA,13069,Coffee,Douglas,"42,356","1,489.50",575.097,71.362,27.553,"1,560.86",602.65,31.549245,–82.844938
GA,13071,Colquitt,Moultrie,"45,498","1,409.35",544.153,32.338,12.486,"1,441.69",556.639,31.189758,–83.769741
GA,13073,Columbia,Appling,"124,053",751.329,290.09,45.363,17.515,796.692,307.605,33.550556,–82.251342
GA,13075,Cook,Adel,"17,212",588.346,227.162,15.647,6.041,603.993,233.203,31.152935,–83.429552
GA,13077,Coweta,Newnan,"127,317","1,141.91",440.892,12.755,4.925,"1,154.66",445.817,33.352897,–84.762138
GA,13079,Crawford,Knoxville,"12,630",841.456,324.888,4.055,1.565,845.511,326.453,32.709446,–83.979182
GA,13081,Crisp,Cordele,"23,439",705.988,272.583,21.672,8.368,727.66,280.951,31.914753,–83.753338
GA,13083,Dade,Trenton,"16,633",450.609,173.981,0.463,0.179,451.073,174.16,34.852424,–85.506201
GA,13085,Dawson,Dawsonville,"22,330",546.046,210.83,9.269,3.579,555.315,214.409,34.442842,–84.173284
GA,13087,Decatur,Bainbridge,"27,842","1,546.59",597.14,67.413,26.028,"1,614.00",623.168,30.877961,–84.577744
GA,13089,DeKalb,Decatur,"691,893",693.034,267.582,9.22,3.56,702.254,271.142,33.770661,–84.226343
GA,13091,Dodge,Eastman,"21,796","1,284.35",495.89,18.709,7.224,"1,303.06",503.114,32.160656,–83.156818
GA,13093,Dooly,Vienna,"14,918","1,015.12",391.94,13.841,5.344,"1,028.96",397.284,32.151995,–83.807167
GA,13095,Dougherty,Albany,"94,565",851.299,328.689,15.395,5.944,866.694,334.633,31.535068,–84.214444
GA,13097,Douglas,Douglasville,"132,403",518.171,200.067,2.484,0.959,520.655,201.026,33.699317,–84.765944
GA,13099,Early,Blakely,"11,008","1,327.61",512.594,9.717,3.752,"1,337.33",516.346,31.324191,–84.906723
GA,13101,Echols,Statenville,"4,034","1,074.57",414.894,15.087,5.825,"1,089.66",420.719,30.7085,–82.836132
GA,13103,Effingham,Springfield,"52,250","1,237.24",477.7,13.548,5.231,"1,250.78",482.931,32.361711,–81.343337
GA,13105,Elbert,Elberton,"20,166",909.229,351.055,59.987,23.161,969.216,374.216,34.115017,–82.842057
GA,13107,Emanuel,Swainsboro,"22,598","1,762.76",680.604,24.807,9.578,"1,787.56",690.182,32.5911,–82.299763
GA,13109,Evans,Claxton,"11,000",473.586,182.853,10.404,4.017,483.99,186.87,32.151902,–81.887618
GA,13111,Fannin,Blue Ridge,"23,682","1,001.61",386.723,13.564,5.237,"1,015.17",391.96,34.863837,–84.319287
GA,13113,Fayette,Fayetteville,"106,567",503.344,194.342,12.897,4.979,516.241,199.321,33.412717,–84.493941
GA,13115,Floyd,Rome,"96,317","1,320.66",509.911,22.156,8.555,"1,342.82",518.466,34.263677,–85.213730
GA,13117,Forsyth,Cumming,"175,511",580.211,224.021,59.947,23.145,640.157,247.166,34.225143,–84.127336
GA,13119,Franklin,Carnesville,"22,084",677.273,261.497,12.832,4.955,690.105,266.452,34.375155,–83.227291
GA,13121,Fulton,Atlanta,"920,581","1,363.98",526.635,19.917,7.69,"1,383.90",534.325,33.790034,–84.468182
GA,13123,Gilmer,Ellijay,"28,292","1,104.73",426.54,12.19,4.706,"1,116.92",431.246,34.690541,–84.453984
GA,13125,Glascock,Gibson,"3,082",372.284,143.74,1.848,0.713,374.132,144.453,33.227491,–82.606913
GA,13127,Glynn,Brunswick,"79,626","1,087.16",419.753,428.63,165.495,"1,515.79",585.248,31.212747,–81.496517
GA,13129,Gordon,Calhoun,"55,186",921.539,355.808,5.788,2.235,927.327,358.043,34.509667,–84.873862
GA,13131,Grady,Cairo,"25,011","1,177.22",454.527,14.859,5.737,"1,192.08",460.264,30.875863,–84.244772
GA,13133,Greene,Greensboro,"15,994","1,003.45",387.435,48.628,18.775,"1,052.08",406.21,33.576836,–83.167103
GA,13135,Gwinnett,Lawrenceville,"805,321","1,114.69",430.383,16.556,6.392,"1,131.24",436.775,33.959101,–84.022938
GA,13137,Habersham,Clarkesville,"43,041",716.752,276.74,5.92,2.286,722.672,279.026,34.635108,–83.526406
GA,13139,Hall,Gainesville,"179,684","1,017.30",392.782,94.568,36.513,"1,111.87",429.295,34.317588,–83.818497
GA,13141,Hancock,Sparta,"9,429","1,222.06",471.841,17.715,6.84,"1,239.78",478.681,33.26922,–83.000465
GA,13143,Haralson,Buchanan,"28,780",730.804,282.165,2.616,1.01,733.42,283.175,33.795165,–85.220062
GA,13145,Harris,Hamilton,"32,024","1,201.41",463.869,23.536,9.087,"1,224.95",472.956,32.731549,–84.912432
GA,13147,Hart,Hartwell,"25,213",601.897,232.394,63.595,24.554,665.492,256.948,34.348733,–82.963290
GA,13149,Heard,Franklin,"11,834",766.715,296.03,13.116,5.064,779.831,301.094,33.290968,–85.139594
GA,13151,Henry,McDonough,"203,922",834.305,322.127,11.448,4.42,845.752,326.547,33.452881,–84.154440
GA,13153,Houston,Perry,"139,900",972.646,375.541,11.345,4.38,983.991,379.921,32.458381,–83.662856
GA,13155,Irwin,Ocilla,"9,538",917.744,354.343,21.808,8.42,939.551,362.763,31.604306,–83.277037
GA,13157,Jackson,Jefferson,"60,485",879.723,339.663,8.9,3.436,888.623,343.099,34.134157,–83.565133
GA,13159,Jasper,Monticello,"13,900",953.543,368.165,13.726,5.3,967.269,373.465,33.314905,–83.687892
GA,13161,Jeff Davis,Hazlehurst,"15,068",856.613,330.74,12.064,4.658,868.677,335.398,31.811615,–82.636825
GA,13163,Jefferson,Louisville,"16,930","1,363.59",526.485,8.242,3.182,"1,371.83",529.667,33.051874,–82.419050
GA,13165,Jenkins,Millen,"8,340",899.449,347.279,13.452,5.194,912.901,352.473,32.794563,–81.971524
GA,13167,Johnson,Wrightsville,"9,980",784.793,303.01,9.279,3.582,794.072,306.592,32.689831,–82.661354
GA,13169,Jones,Gray,"28,669","1,020.28",393.933,3.843,1.484,"1,024.12",395.417,33.020226,–83.562339
GA,13171,Lamar,Barnesville,"18,317",475.263,183.5,6.046,2.334,481.309,185.834,33.07446,–84.146721
GA,13173,Lanier,Lakeland,"10,078",479.824,185.261,37.625,14.527,517.45,199.788,31.038197,–83.063164
GA,13175,Laurens,Dublin,"48,434","2,090.89",807.296,28.942,11.175,"2,119.83",818.471,32.39322,–82.926317
GA,13177,Lee,Leesburg,"28,298",921.476,355.784,15.408,5.949,936.884,361.733,31.818419,–84.146681
GA,13179,Liberty,Hinesville,"63,453","1,268.58",489.801,291.96,112.726,"1,560.54",602.527,31.807245,–81.457969
GA,13181,Lincoln,Lincolnton,"7,996",544.881,210.38,121.517,46.918,666.398,257.298,33.792151,–82.448299
GA,13183,Long,Ludowici,"14,464","1,036.76",400.293,9.116,3.52,"1,045.87",403.813,31.749563,–81.742870
GA,13185,Lowndes,Valdosta,"109,233","1,284.81",496.066,37.579,14.509,"1,322.38",510.575,30.83368,–83.268967
GA,13187,Lumpkin,Dahlonega,"29,966",732.793,282.933,3.273,1.264,736.066,284.197,34.568149,–83.998828
GA,13189,McDuffie,Thomson,"21,875",666.82,257.461,23.121,8.927,689.941,266.388,33.482464,–82.473188
GA,13191,McIntosh,Darien,"14,333","1,098.93",424.299,387.448,149.594,"1,486.38",573.893,31.482978,–81.370199
GA,13193,Macon,Oglethorpe,"14,740","1,037.65",400.641,13.859,5.351,"1,051.51",405.992,32.366216,–84.052162
GA,13195,Madison,Danielsville,"28,120",731.182,282.311,8.487,3.277,739.669,285.588,34.128486,–83.203637
GA,13197,Marion,Buena Vista,"8,742",947.944,366.003,3.825,1.477,951.77,367.48,32.359538,–84.529561
GA,13199,Meriwether,Greenville,"21,992","1,298.16",501.223,10.834,4.183,"1,309.00",505.406,33.03022,–84.663279
GA,13201,Miller,Colquitt,"6,125",731.467,282.421,3.216,1.242,734.683,283.663,31.162908,–84.730386
GA,13205,Mitchell,Camilla,"23,498","1,326.29",512.085,4.504,1.739,"1,330.80",513.824,31.22894,–84.192407
GA,13207,Monroe,Forsyth,"26,424","1,024.75",395.658,5.575,2.153,"1,030.33",397.811,33.017435,–83.922938
GA,13209,Montgomery,Mount Vernon,"9,123",620.363,239.523,13.389,5.169,633.752,244.692,32.172108,–82.533349
GA,13211,Morgan,Madison,"17,868",899.631,347.349,18.832,7.271,918.463,354.62,33.593732,–83.492324
GA,13213,Murray,Chatsworth,"39,628",892.164,344.466,5.688,2.196,897.852,346.662,34.797097,–84.737990
GA,13215,Muscogee,Columbus,"189,885",560.435,216.385,11.969,4.621,572.404,221.006,32.510197,–84.874946
GA,13217,Newton,Covington,"99,958",704.895,272.161,18.225,7.037,723.119,279.198,33.544046,–83.855189
GA,13219,Oconee,Watkinsville,"32,808",477.308,184.29,5.393,2.082,482.701,186.372,33.834125,–83.437728
GA,13221,Oglethorpe,Lexington,"14,899","1,137.04",439.012,7.839,3.027,"1,144.87",442.039,33.866806,–83.074081
GA,13223,Paulding,Dallas,"142,324",808.643,312.219,5.498,2.123,814.141,314.342,33.920903,–84.866979
GA,13225,Peach,Fort Valley,"27,695",389.191,150.267,2.676,1.033,391.867,151.3,32.571324,–83.831978
GA,13227,Pickens,Jasper,"29,431",601.026,232.057,1.696,0.655,602.722,232.712,34.456621,–84.490256
GA,13229,Pierce,Blackshear,"18,758",819.715,316.494,69.246,26.736,888.961,343.23,31.353988,–82.210427
GA,13231,Pike,Zebulon,"17,869",559.659,216.086,8.597,3.319,568.256,219.405,33.090769,–84.386627
GA,13233,Polk,Cedartown,"41,475",803.755,310.331,4.686,1.809,808.441,312.14,33.995961,–85.186826
GA,13235,Pulaski,Hawkinsville,"12,010",644.987,249.031,5.635,2.176,650.622,251.207,32.238794,–83.481855
GA,13237,Putnam,Eatonton,"21,218",892.611,344.639,41.563,16.048,934.174,360.687,33.321061,–83.371790
GA,13239,Quitman,Georgetown,"2,513",391.703,151.237,24.158,9.328,415.861,160.565,31.861487,–85.009317
GA,13241,Rabun,Clayton,"16,276",958.277,369.993,17.845,6.89,976.122,376.883,34.883026,–83.404735
GA,13243,Randolph,Cuthbert,"7,719","1,109.13",428.236,6.83,2.637,"1,115.96",430.873,31.762651,–84.752311
GA,13245,Richmond,Augusta,"200,549",840,324.326,11.047,4.265,851.047,328.591,33.361487,–82.074998
GA,13247,Rockdale,Conyers,"85,215",336.162,129.793,5.97,2.305,342.132,132.098,33.652081,–84.026370
GA,13249,Schley,Ellaville,"5,010",432.284,166.906,2.376,0.918,434.66,167.824,32.263441,–84.322724
GA,13251,Screven,Sylvania,"14,593","1,670.80",645.101,27.889,10.768,"1,698.69",655.869,32.744751,–81.617585
GA,13253,Seminole,Donalsonville,"8,729",609.233,235.226,55.244,21.33,664.477,256.556,30.933894,–84.867592
GA,13255,Spalding,Griffin,"64,073",508.852,196.469,8.085,3.122,516.937,199.591,33.262389,–84.286067
GA,13257,Stephens,Toccoa,"26,175",463.948,179.131,13.122,5.066,477.07,184.197,34.552914,–83.290216
GA,13259,Stewart,Lumpkin,"6,058","1,188.11",458.733,12.637,4.879,"1,200.75",463.612,32.073225,–84.834912
GA,13261,Sumter,Americus,"32,819","1,250.18",482.697,25.788,9.957,"1,275.97",492.654,32.042203,–84.204283
GA,13263,Talbot,Talbotton,"6,865","1,013.69",391.389,8.737,3.373,"1,022.43",394.762,32.704603,–84.530029
GA,13265,Taliaferro,Crawfordville,"1,717",504.032,194.608,1.916,0.74,505.947,195.348,33.559314,–82.875208
GA,13267,Tattnall,Reidsville,"25,520","1,241.65",479.403,23.169,8.946,"1,264.82",488.349,32.043768,–82.059208
GA,13269,Taylor,Butler,"8,906",975.612,376.686,7.804,3.013,983.416,379.699,32.554667,–84.251426
GA,13271,Telfair,McRae,"16,500","1,132.61",437.303,17.367,6.705,"1,149.98",444.008,31.913639,–82.931062
GA,13273,Terrell,Dawson,"9,315",868.784,335.439,5.863,2.264,874.647,337.703,31.777191,–84.439446
GA,13275,Thomas,Thomasville,"44,720","1,410.50",544.596,19.742,7.623,"1,430.24",552.219,30.864616,–83.919783
GA,13277,Tift,Tifton,"40,118",670.586,258.915,25.575,9.875,696.161,268.79,31.457003,–83.525931
GA,13279,Toombs,Lyons,"27,223",942.768,364.005,18.099,6.988,960.867,370.993,32.126698,–82.332071
GA,13281,Towns,Hiawassee,"10,471",431.396,166.563,14.038,5.42,445.433,171.983,34.90265,–83.732158
GA,13283,Treutlen,Soperton,"6,885",516.537,199.436,7.806,3.014,524.342,202.45,32.409586,–82.570882
GA,13285,Troup,La Grange,"67,044","1,072.22",413.988,82.812,31.974,"1,155.04",445.962,33.034482,–85.028360
GA,13287,Turner,Ashburn,"8,930",739.165,285.393,11.881,4.587,751.046,289.98,31.718232,–83.628567
GA,13289,Twiggs,Jeffersonville,"9,023",928.246,358.398,10.972,4.236,939.218,362.634,32.665847,–83.425879
GA,13291,Union,Blairsville,"21,356",833.785,321.926,18.333,7.078,852.118,329.004,34.83377,–83.989573
GA,13293,Upson,Thomaston,"27,153",837.697,323.437,10.663,4.117,848.36,327.554,32.881837,–84.292281
GA,13295,Walker,La Fayette,"68,756","1,156.12",446.379,1.673,0.646,"1,157.79",447.025,34.735827,–85.305385
GA,13297,Walton,Monroe,"83,768",843.508,325.68,11.188,4.32,854.696,330,33.782649,–83.734215
GA,13299,Ware,Waycross,"36,312","2,311.46",892.461,40.216,15.527,"2,351.68",907.988,31.050881,–82.421507
GA,13301,Warren,Warrenton,"5,834",736.329,284.298,6.19,2.39,742.518,286.688,33.419169,–82.688012
GA,13303,Washington,Sandersville,"21,187","1,757.18",678.452,15.29,5.904,"1,772.47",684.356,32.971848,–82.798112
GA,13305,Wayne,Jesup,"30,099","1,662.19",641.777,18.18,7.019,"1,680.37",648.796,31.547845,–81.912376
GA,13307,Webster,Preston,"2,799",541.614,209.118,2.966,1.145,544.58,210.263,32.046554,–84.553218
GA,13309,Wheeler,Alamo,"7,421",765.301,295.484,12.39,4.784,777.691,300.268,32.109276,–82.738701
GA,13311,White,Cleveland,"27,144",623.375,240.686,3.94,1.521,627.315,242.207,34.643677,–83.743713
GA,13313,Whitfield,Dalton,"102,599",752.297,290.464,1.53,0.591,753.827,291.055,34.801726,–84.968541
GA,13315,Wilcox,Abbeville,"9,255",978.25,377.705,11.444,4.419,989.694,382.124,31.962717,–83.438262
GA,13317,Wilkes,Washington,"10,593","1,215.97",469.49,11.925,4.604,"1,227.90",474.094,33.77904,–82.747922
GA,13319,Wilkinson,Irwinton,"9,563","1,158.52",447.308,12.023,4.642,"1,170.55",451.95,32.804321,–83.175587
GA,13321,Worth,Sylvester,"21,679","1,478.11",570.702,10.498,4.053,"1,488.61",574.755,31.551773,–83.849960
HI,15001,Hawaiʻi,Hilo,"185,079","10,433.55","4,028.42","2,739.47","1,057.72","13,173.02","5,086.13",19.597764,–155.502443
HI,15003,Honolulu,Honolulu,"953,207","1,555.92",600.743,"3,955.76","1,527.33","5,511.68","2,128.07",21.461364,–158.201976
HI,15005,Kalawao [8],— [8],90,31.058,11.991,105.77,40.838,136.827,52.829,21.218764,–156.974010
HI,15007,Kauaʻi,Līhuʻe,"67,091","1,605.68",619.956,"1,674.18",646.403,"3,279.86","1,266.36",22.012038,–159.705965
HI,15009,Maui,Wailuku,"154,834","3,008.33","1,161.52","3,203.32","1,236.81","6,211.64","2,398.33",20.855931,–156.601550
ID,16001,Ada,Boise,"392,365","2,726.16","1,052.58",20.425,7.886,"2,746.58","1,060.46",43.447861,–116.244456
ID,16003,Adams,Council,"3,976","3,530.30","1,363.06",17.392,6.715,"3,547.69","1,369.77",44.884583,–116.431873
ID,16005,Bannock,Pocatello,"82,839","2,880.04","1,111.99",91.801,35.444,"2,971.84","1,147.43",42.692939,–112.228986
ID,16007,Bear Lake,Paris,"5,986","2,524.68",974.785,193.274,74.623,"2,717.96","1,049.41",42.285833,–111.327445
ID,16009,Benewah,St. Maries,"9,285","2,011.43",776.617,18.988,7.331,"2,030.42",783.948,47.218451,–116.633541
ID,16011,Bingham,Blackfoot,"45,607","5,423.38","2,093.98",68.448,26.428,"5,491.83","2,120.41",43.216357,–112.399206
ID,16013,Blaine,Hailey,"21,376","6,846.86","2,643.59",44.341,17.12,"6,891.20","2,660.71",43.394482,–113.955290
ID,16015,Boise,Idaho City,"7,028","4,919.00","1,899.24",19.293,7.449,"4,938.29","1,906.69",43.987275,–115.715111
ID,16017,Bonner,Sandpoint,"40,877","4,492.52","1,734.57",478.956,184.926,"4,971.48","1,919.50",48.312512,–116.596940
ID,16019,Bonneville,Idaho Falls,"104,234","4,833.12","1,866.08",89.507,34.559,"4,922.62","1,900.64",43.395171,–111.621878
ID,16021,Boundary,Bonners Ferry,"10,972","3,285.56","1,268.56",24.081,9.298,"3,309.64","1,277.86",48.773065,–116.524619
ID,16023,Butte,Arco,"2,891","5,779.99","2,231.67",5.258,2.03,"5,785.25","2,233.70",43.6851,–113.177627
ID,16025,Camas,Fairfield,"1,117","2,782.93","1,074.49",11.535,4.454,"2,794.46","1,078.95",43.463396,–114.804427
ID,16027,Canyon,Caldwell,"188,923","1,521.28",587.37,41.9,16.178,"1,563.18",603.548,43.623051,–116.708527
ID,16029,Caribou,Soda Springs,"6,963","4,569.12","1,764.15",89.171,34.429,"4,658.29","1,798.58",42.786273,–111.544172
ID,16031,Cassia,Burley,"22,952","6,643.53","2,565.08",39.371,15.201,"6,682.90","2,580.28",42.288635,–113.605498
ID,16033,Clark,Dubois,982,"4,569.22","1,764.19",2.477,0.956,"4,571.70","1,765.14",44.286251,–112.361120
ID,16035,Clearwater,Orofino,"8,761","6,364.31","2,457.27",79.545,30.712,"6,443.85","2,487.99",46.67257,–115.653500
ID,16037,Custer,Challis,"4,368","12,745.18","4,920.94",42.387,16.366,"12,787.56","4,937.31",44.273341,–114.252251
ID,16039,Elmore,Mountain Home,"27,038","7,963.53","3,074.74",67.385,26.017,"8,030.92","3,100.76",43.394826,–115.470751
ID,16041,Franklin,Preston,"12,786","1,718.83",663.645,12.169,4.699,"1,731.00",668.344,42.173589,–111.822955
ID,16043,Fremont,St. Anthony,"13,242","4,826.51","1,863.53",83.292,32.159,"4,909.80","1,895.68",44.218091,–111.484429
ID,16045,Gem,Emmett,"16,719","1,452.73",560.9,12.445,4.805,"1,465.17",565.705,44.061473,–116.398784
ID,16047,Gooding,Gooding,"15,464","1,888.03",728.973,12.29,4.745,"1,900.32",733.718,42.973185,–114.821420
ID,16049,Idaho,Grangeville,"16,267","21,956.24","8,477.35",67.336,25.998,"22,023.58","8,503.35",45.849237,–115.467376
ID,16051,Jefferson,Rigby,"26,140","2,832.16","1,093.50",31.268,12.073,"2,863.42","1,105.57",43.796965,–112.318588
ID,16053,Jerome,Jerome,"22,374","1,546.70",597.185,12.864,4.967,"1,559.57",602.152,42.691172,–114.263009
ID,16055,Kootenai,Coeur d'Alene,"138,494","3,222.27","1,244.13",185.18,71.498,"3,407.45","1,315.62",47.677113,–116.694918
ID,16057,Latah,Moscow,"37,244","2,786.82","1,076.00",2.373,0.916,"2,789.19","1,076.91",46.81892,–116.730974
ID,16059,Lemhi,Salmon,"7,936","11,819.12","4,563.39",13.894,5.365,"11,833.01","4,568.75",44.928789,–113.887841
ID,16061,Lewis,Nezperce,"3,821","1,240.07",478.795,2.444,0.944,"1,242.52",479.739,46.236328,–116.423760
ID,16063,Lincoln,Shoshone,"5,208","3,111.63","1,201.41",11.608,4.482,"3,123.23","1,205.89",42.986181,–114.153899
ID,16065,Madison,Rexburg,"37,536","1,215.24",469.206,10.412,4.02,"1,225.65",473.226,43.789709,–111.656550
ID,16067,Minidoka,Rupert,"20,069","1,962.15",757.591,13.821,5.336,"1,975.97",762.927,42.856937,–113.640010
ID,16069,Nez Perce,Lewiston,"39,265","2,196.55",848.092,21.213,8.19,"2,217.76",856.282,46.333766,–116.760903
ID,16071,Oneida,Malad City,"4,286","3,108.14","1,200.06",3.995,1.543,"3,112.14","1,201.60",42.18389,–112.520465
ID,16073,Owyhee,Murphy,"11,526","19,853.58","7,665.51",81.509,31.471,"19,935.09","7,696.98",42.593063,–116.142655
ID,16075,Payette,Payette,"22,623","1,053.78",406.867,8.827,3.408,"1,062.61",410.275,44.00274,–116.748655
ID,16077,Power,American Falls,"7,817","3,636.97","1,404.24",99.513,38.422,"3,736.49","1,442.67",42.694126,–112.844407
ID,16079,Shoshone,Wallace,"12,765","6,810.80","2,629.67",14.137,5.458,"6,824.94","2,635.12",47.347694,–115.885092
ID,16081,Teton,Driggs,"10,170","1,164.08",449.456,2.859,1.104,"1,166.94",450.56,43.760994,–111.211765
ID,16083,Twin Falls,Twin Falls,"77,230","4,975.92","1,921.21",18.418,7.111,"4,994.34","1,928.32",42.352309,–114.665639
ID,16085,Valley,Cascade,"9,862","9,491.05","3,664.52",177.273,68.446,"9,668.32","3,732.96",44.771532,–115.637875
ID,16087,Washington,Weiser,"10,198","3,763.21","1,452.98",53.213,20.546,"3,816.42","1,473.53",44.448213,–116.797830
IL,17001,Adams,Quincy,"67,103","2,214.96",855.202,41.793,16.136,"2,256.76",871.338,39.986053,–91.194961
IL,17003,Alexander,Cairo,"8,238",609.966,235.509,44.268,17.092,654.234,252.601,37.183683,–89.349506
IL,17005,Bond,Greenville,"17,768",984.919,380.279,6.426,2.481,991.345,382.76,38.885924,–89.436592
IL,17007,Boone,Belvidere,"54,165",727.06,280.719,3.381,1.305,730.441,282.024,42.318983,–88.824295
IL,17009,Brown,Mount Sterling,"6,937",791.518,305.607,4.139,1.598,795.658,307.205,39.962069,–90.750310
IL,17011,Bureau,Princeton,"34,978","2,250.78",869.031,11.584,4.472,"2,262.36",873.503,41.401304,–89.528377
IL,17013,Calhoun,Hardin,"5,089",657.403,253.825,77.057,29.752,734.46,283.577,39.164262,–90.666295
IL,17015,Carroll,Mount Carroll,"15,387","1,152.05",444.807,55.822,21.553,"1,207.87",466.36,42.059084,–89.926485
IL,17017,Cass,Virginia,"13,642",973.365,375.818,20.582,7.947,993.947,383.765,39.969202,–90.245705
IL,17019,Champaign,Urbana,"201,081","2,580.32",996.266,5.509,2.127,"2,585.83",998.393,40.13915,–88.197201
IL,17021,Christian,Taylorville,"34,800","1,837.28",709.377,16.221,6.263,"1,853.50",715.64,39.545524,–89.279593
IL,17023,Clark,Marshall,"16,335","1,298.67",501.418,8.807,3.4,"1,307.47",504.818,39.332364,–87.791687
IL,17025,Clay,Louisville,"13,815","1,212.93",468.316,3.305,1.276,"1,216.24",469.592,38.747312,–88.483789
IL,17027,Clinton,Carlyle,"37,762","1,227.87",474.085,75.592,29.186,"1,303.47",503.271,38.606423,–89.423136
IL,17029,Coles,Charleston,"53,873","1,316.47",508.291,4.625,1.786,"1,321.09",510.077,39.51368,–88.220782
IL,17031,Cook,Chicago,"5,194,675","2,448.38",945.326,"1,785.88",689.533,"4,234.27","1,634.86",41.894294,–87.645455
IL,17033,Crawford,Robinson,"19,817","1,148.99",443.629,5.67,2.189,"1,154.67",445.818,39.00373,–87.757172
IL,17035,Cumberland,Toledo,"11,048",896.199,346.024,2.536,0.979,898.734,347.003,39.273121,–88.240619
IL,17037,DeKalb,Clinton,"105,160","1,635.08",631.307,8.684,3.353,"1,643.76",634.66,41.894613,–88.768991
IL,17039,De Witt,Sycamore,"16,561","1,029.56",397.513,19.609,7.571,"1,049.16",405.084,40.181499,–88.901853
IL,17041,Douglas,Tuscola,"19,980","1,079.16",416.665,1.449,0.559,"1,080.61",417.224,39.766078,–88.222866
IL,17043,DuPage,Wheaton,"916,924",848.218,327.499,23.083,8.913,871.302,336.412,41.852058,–88.086038
IL,17045,Edgar,Paris,"18,576","1,614.53",623.374,1.611,0.622,"1,616.14",623.996,39.679037,–87.747110
IL,17047,Edwards,Albion,"6,721",576.054,222.416,0.789,0.305,576.843,222.721,38.417095,–88.047941
IL,17049,Effingham,Effingham,"34,242","1,240.03",478.777,3.183,1.229,"1,243.21",480.006,39.047694,–88.592786
IL,17051,Fayette,Vandalia,"22,140","1,855.68",716.482,22.95,8.861,"1,878.63",725.343,39.001125,–89.017923
IL,17053,Ford,Paxton,"14,081","1,257.74",485.616,1.622,0.626,"1,259.36",486.242,40.594423,–88.224746
IL,17055,Franklin,Benton,"39,561","1,059.02",408.889,58.417,22.555,"1,117.44",431.444,37.991848,–88.926246
IL,17057,Fulton,Lewistown,"37,069","2,241.88",865.595,43.974,16.979,"2,285.86",882.574,40.465688,–90.206793
IL,17059,Gallatin,Shawneetown,"5,589",836.75,323.071,13.239,5.111,849.989,328.182,37.768677,–88.227964
IL,17061,Greene,Carrollton,"13,886","1,406.41",543.019,8.425,3.253,"1,414.84",546.272,39.355444,–90.387757
IL,17063,Grundy,Morris,"50,063","1,082.73",418.043,32.127,12.404,"1,114.85",430.447,41.29241,–88.401055
IL,17065,Hamilton,McLeansboro,"8,457","1,125.78",434.665,3.175,1.226,"1,128.95",435.891,38.085226,–88.539005
IL,17067,Hancock,Carthage,"19,104","2,055.74",793.726,53.536,20.67,"2,109.28",814.396,40.405792,–91.167988
IL,17069,Hardin,Elizabethtown,"4,320",459.794,177.528,10.491,4.051,470.286,181.579,37.517852,–88.266148
IL,17071,Henderson,Oquawka,"7,331",981.274,378.872,42.341,16.348,"1,023.61",395.22,40.815141,–90.938480
IL,17073,Henry,Cambridge,"50,486","2,131.52",822.985,6.884,2.658,"2,138.41",825.643,41.350021,–90.130838
IL,17075,Iroquois,Watseka,"29,718","2,893.84","1,117.32",4.172,1.611,"2,898.01","1,118.93",40.748867,–87.833601
IL,17077,Jackson,Murphysboro,"60,218","1,512.76",584.081,47.392,18.298,"1,560.16",602.379,37.786096,–89.381212
IL,17079,Jasper,Newton,"9,698","1,280.77",494.51,9.349,3.61,"1,290.12",498.12,39.004874,–88.150763
IL,17081,Jefferson,Mount Vernon,"38,827","1,479.32",571.169,32.674,12.615,"1,511.99",583.784,38.30078,–88.924210
IL,17083,Jersey,Jerseyville,"22,985",956.408,369.271,20.349,7.857,976.757,377.128,39.080192,–90.361365
IL,17085,Jo Daviess,Galena,"22,678","1,556.81",601.087,45.69,17.641,"1,602.50",618.728,42.362391,–90.211471
IL,17087,Johnson,Vienna,"12,582",890.736,343.915,12.817,4.949,903.552,348.864,37.460815,–88.882962
IL,17089,Kane,Geneva,"515,269","1,346.94",520.058,10.731,4.143,"1,357.67",524.201,41.939594,–88.428040
IL,17091,Kankakee,Kankakee,"113,449","1,752.27",676.556,12.452,4.808,"1,764.72",681.364,41.139494,–87.861125
IL,17093,Kendall,Yorkville,"114,736",829.665,320.335,5.141,1.985,834.805,322.32,41.58814,–88.430626
IL,17095,Knox,Galesburg,"52,919","1,855.45",716.395,8.849,3.417,"1,864.30",719.812,40.930941,–90.213761
IL,17097,Lake,Ottawa,"703,462","1,149.10",443.67,"2,395.24",924.809,"3,544.34","1,368.48",42.326444,–87.436118
IL,17099,La Salle,Waukegan,"113,924","2,939.96","1,135.12",33.701,13.012,"2,973.66","1,148.14",41.343341,–88.885931
IL,17101,Lawrence,Lawrenceville,"16,833",963.937,372.178,5.078,1.961,969.015,374.139,38.718954,–87.730221
IL,17103,Lee,Dixon,"36,031","1,877.47",724.896,10.506,4.057,"1,887.98",728.953,41.747442,–89.299351
IL,17105,Livingston,Pontiac,"38,950","2,704.69","1,044.29",4.253,1.642,"2,708.94","1,045.93",40.894376,–88.552852
IL,17107,Logan,Lincoln,"30,305","1,600.77",618.059,2.247,0.868,"1,603.01",618.927,40.12907,–89.365308
IL,17109,McDonough,Decatur,"32,612","1,526.56",589.407,2.013,0.777,"1,528.57",590.184,40.455789,–90.677579
IL,17111,McHenry,Woodstock,"308,760","1,562.21",603.171,19.792,7.642,"1,582.00",610.813,42.324298,–88.452245
IL,17113,McLean,Edwardsville,"169,572","3,064.93","1,183.38",7.491,2.892,"3,072.42","1,186.27",40.494559,–88.844539
IL,17115,Macon,Salem,"110,768","1,503.98",580.689,13.406,5.176,"1,517.38",585.865,39.860237,–88.961529
IL,17117,Macoupin,Lacon,"47,765","2,234.92",862.906,12.287,4.744,"2,247.21",867.65,39.2659,–89.926344
IL,17119,Madison,Havana,"269,282","1,853.35",715.582,64.697,24.98,"1,918.05",740.562,38.827082,–89.900195
IL,17121,Marion,Metropolis,"39,437","1,482.41",572.363,9.513,3.673,"1,491.93",576.036,38.648396,–88.920221
IL,17123,Marshall,Macomb,"12,640","1,001.78",386.789,30.368,11.725,"1,032.15",398.514,41.031119,–89.342371
IL,17125,Mason,Woodstock,"14,666","1,396.62",539.238,62.745,24.226,"1,459.36",563.464,40.236993,–89.913575
IL,17127,Massac,Bloomington,"15,429",614.391,237.218,11.905,4.596,626.295,241.814,37.216119,–88.705658
IL,17129,Menard,Petersburg,"12,705",814.388,314.437,2.642,1.02,817.03,315.457,40.022569,–89.794133
IL,17131,Mercer,Aledo,"16,434","1,453.51",561.202,19.403,7.492,"1,472.91",568.694,41.204791,–90.741433
IL,17133,Monroe,Waterloo,"32,957",997.173,385.011,33.734,13.025,"1,030.91",398.036,38.277983,–90.179078
IL,17135,Montgomery,Hillsboro,"30,104","1,822.54",703.687,15.513,5.99,"1,838.05",709.677,39.228092,–89.478007
IL,17137,Morgan,Jacksonville,"35,547","1,473.16",568.791,9.079,3.506,"1,482.24",572.297,39.716806,–90.202277
IL,17139,Moultrie,Sullivan,"14,846",870.089,335.943,22.102,8.534,892.191,344.477,39.636896,–88.625726
IL,17141,Ogle,Oregon,"53,497","1,964.70",758.574,11.425,4.411,"1,976.12",762.985,42.041884,–89.320176
IL,17143,Peoria,Peoria,"186,494","1,603.75",619.209,29.499,11.39,"1,633.24",630.599,40.785999,–89.767358
IL,17145,Perry,Pinckneyville,"22,350","1,144.16",441.761,13.447,5.192,"1,157.60",446.953,38.084385,–89.368487
IL,17147,Piatt,Monticello,"16,729","1,137.53",439.202,0.673,0.26,"1,138.20",439.462,40.009056,–88.592328
IL,17149,Pike,Pittsfield,"16,430","2,153.27",831.381,45.333,17.503,"2,198.60",848.884,39.625106,–90.889034
IL,17151,Pope,Golconda,"4,470",955.11,368.77,14.329,5.532,969.439,374.302,37.417169,–88.542374
IL,17153,Pulaski,Mound City,"6,161",515.886,199.185,10.475,4.044,526.361,203.229,37.215615,–89.127755
IL,17155,Putnam,Hennepin,"6,006",414.814,160.161,31.243,12.063,446.057,172.224,41.19894,–89.298386
IL,17157,Randolph,Chester,"33,476","1,490.54",575.5,56.216,21.705,"1,546.75",597.205,38.056515,–89.821210
IL,17159,Richland,Olney,"16,233",932.371,359.99,4.937,1.906,937.308,361.896,38.71155,–88.085698
IL,17161,Rock Island,Rock Island,"147,546","1,107.57",427.636,61.257,23.652,"1,168.83",451.288,41.468404,–90.572203
IL,17163,St. Clair,Harrisburg,"270,056","1,703.59",657.759,42.15,16.274,"1,745.74",674.033,38.470198,–89.928546
IL,17165,Saline,Springfield,"24,913",983.726,379.819,18.029,6.961,"1,001.76",386.78,37.751653,–88.545031
IL,17167,Sangamon,Rushville,"197,465","2,248.89",868.302,22.577,8.717,"2,271.47",877.019,39.756378,–89.662311
IL,17169,Schuyler,Winchester,"7,544","1,132.53",437.273,10.512,4.059,"1,143.04",441.332,40.156905,–90.613464
IL,17171,Scott,Shelbyville,"5,355",649.861,250.913,4.813,1.858,654.674,252.771,39.63698,–90.477759
IL,17173,Shelby,Belleville,"22,363","1,964.57",758.523,24.726,9.547,"1,989.29",768.07,39.384926,–88.798862
IL,17175,Stark,Toulon,"5,994",746.122,288.079,0.709,0.274,746.83,288.353,41.096908,–89.797411
IL,17177,Stephenson,Freeport,"47,711","1,462.11",564.523,1.386,0.535,"1,463.49",565.058,42.349726,–89.665994
IL,17179,Tazewell,Pekin,"135,394","1,680.84",648.974,23.211,8.962,"1,704.05",657.936,40.508074,–89.516260
IL,17181,Union,Jonesboro,"17,808","1,070.85",413.459,22.504,8.689,"1,093.36",422.148,37.475104,–89.252875
IL,17183,Vermilion,Danville,"81,625","2,326.76",898.368,7.534,2.909,"2,334.30",901.277,40.18674,–87.726772
IL,17185,Wabash,Mount Carmel,"11,947",578.219,223.252,11.018,4.254,589.237,227.506,38.445821,–87.839167
IL,17187,Warren,Monmouth,"17,707","1,404.82",542.405,1.674,0.646,"1,406.50",543.051,40.850441,–90.620223
IL,17189,Washington,Nashville,"14,716","1,457.06",562.572,3.455,1.334,"1,460.51",563.906,38.353141,–89.417187
IL,17191,Wayne,Fairfield,"16,760","1,848.77",713.814,4.331,1.672,"1,853.10",715.486,38.431948,–88.432129
IL,17193,White,Carmi,"14,665","1,281.44",494.766,18.375,7.095,"1,299.81",501.861,38.087372,–88.178585
IL,17195,Whiteside,Morrison,"58,498","1,772.20",684.25,31.796,12.277,"1,804.00",696.527,41.750571,–89.910957
IL,17197,Will,Joliet,"677,560","2,167.58",836.908,31.904,12.318,"2,199.49",849.226,41.448474,–87.978456
IL,17199,Williamson,Marion,"66,357","1,088.18",420.149,62.684,24.203,"1,150.87",444.352,37.730353,–88.930018
IL,17201,Winnebago,Rockford,"295,266","1,329.60",513.362,15.25,5.888,"1,344.85",519.25,42.337396,–89.161205
IL,17203,Woodford,Eureka,"38,664","1,366.99",527.799,38.442,14.843,"1,405.44",542.642,40.789596,–89.210301
IN,18001,Adams,Decatur,"34,387",878.079,339.028,2.43,0.938,880.51,339.966,40.745733,–84.936131
IN,18003,Allen,Fort Wayne,"355,329","1,702.42",657.308,7.029,2.714,"1,709.45",660.022,41.091855,–85.072230
IN,18005,Bartholomew,Columbus,"76,794","1,053.89",406.908,6.778,2.617,"1,060.67",409.525,39.205843,–85.897999
IN,18007,Benton,Fowler,"8,854","1,052.62",406.418,0.236,0.091,"1,052.85",406.509,40.608253,–87.315479
IN,18009,Blackford,Hartford City,"12,766",427.555,165.08,1.304,0.503,428.858,165.583,40.472672,–85.323730
IN,18011,Boone,Lebanon,"56,640","1,095.34",422.913,0.878,0.339,"1,096.22",423.252,40.050892,–86.469014
IN,18013,Brown,Nashville,"15,242",808.027,311.981,12.043,4.65,820.07,316.631,39.192585,–86.239410
IN,18015,Carroll,Delphi,"20,155",964.056,372.224,7.238,2.795,971.294,375.019,40.58498,–86.565141
IN,18017,Cass,Logansport,"38,966","1,067.48",412.155,6.974,2.693,"1,074.45",414.848,40.753799,–86.355169
IN,18019,Clark,Jeffersonville,"110,232",965.691,372.855,9.313,3.596,975.004,376.451,38.476217,–85.711122
IN,18021,Clay,Brazil,"26,890",926.029,357.542,7.199,2.78,933.228,360.322,39.393951,–87.115837
IN,18023,Clinton,Frankfort,"33,224","1,049.13",405.07,0.461,0.178,"1,049.59",405.248,40.305944,–86.477567
IN,18025,Crawford,English,"10,713",791.611,305.643,7.966,3.076,799.577,308.719,38.289433,–86.440871
IN,18027,Daviess,Washington,"31,648","1,112.37",429.487,19.133,7.387,"1,131.50",436.874,38.696155,–87.076988
IN,18029,Dearborn,Lawrenceburg,"50,047",790.033,305.034,6.169,2.382,796.202,307.416,39.151491,–84.973460
IN,18031,Decatur,Greensburg,"25,740",964.946,372.568,1.955,0.755,966.902,373.323,39.30598,–85.499831
IN,18033,DeKalb,Auburn,"42,223",939.711,362.824,2.657,1.026,942.368,363.85,41.401189,–85.000185
IN,18035,Delaware,Muncie,"117,671","1,015.60",392.124,9.804,3.785,"1,025.40",395.909,40.227165,–85.398856
IN,18037,Dubois,Jasper,"41,889","1,106.62",427.269,20.887,8.064,"1,127.51",435.333,38.373344,–86.873385
IN,18039,Elkhart,Goshen,"197,559","1,199.61",463.17,12.432,4.8,"1,212.04",467.97,41.600693,–85.863986
IN,18041,Fayette,Connersville,"24,277",556.884,215.014,0.384,0.148,557.268,215.162,39.639655,–85.185032
IN,18043,Floyd,New Albany,"74,578",383.149,147.935,2.649,1.023,385.798,148.958,38.317937,–85.911474
IN,18045,Fountain,Covington,"17,240","1,024.74",395.656,5.76,2.224,"1,030.50",397.88,40.121282,–87.234806
IN,18047,Franklin,Brookville,"23,087",995.669,384.43,17.146,6.62,"1,012.81",391.05,39.409762,–85.066964
IN,18049,Fulton,Rochester,"20,836",954.121,368.388,7.451,2.877,961.573,371.265,41.050384,–86.265006
IN,18051,Gibson,Princeton,"33,503","1,262.58",487.486,30.248,11.679,"1,292.83",499.165,38.317413,–87.580566
IN,18053,Grant,Marion,"70,061","1,072.45",414.074,2.133,0.824,"1,074.58",414.898,40.515758,–85.654946
IN,18055,Greene,Bloomfield,"33,165","1,405.06",542.495,8.865,3.423,"1,413.92",545.918,39.0486,–87.005245
IN,18057,Hamilton,Noblesville,"274,569","1,021.15",394.267,21.159,8.17,"1,042.31",402.437,40.04987,–86.020586
IN,18059,Hancock,Greenfield,"70,002",792.578,306.016,2.614,1.009,795.191,307.025,39.822604,–85.772904
IN,18061,Harrison,Corydon,"39,364","1,254.89",484.516,5.193,2.005,"1,260.08",486.521,38.18644,–86.103681
IN,18063,Hendricks,Danville,"145,448","1,053.90",406.911,4.834,1.866,"1,058.73",408.777,39.768749,–86.510287
IN,18065,Henry,New Castle,"49,462","1,014.96",391.876,7.655,2.956,"1,022.61",394.832,39.929576,–85.397338
IN,18067,Howard,Kokomo,"82,752",759.013,293.057,2.24,0.865,761.253,293.922,40.483537,–86.114118
IN,18069,Huntington,Huntington,"37,124",991.061,382.651,13.135,5.071,"1,004.20",387.722,40.826394,–85.478598
IN,18071,Jackson,Brownstown,"42,376","1,319.11",509.312,11.917,4.601,"1,331.03",513.913,38.911957,–86.042516
IN,18073,Jasper,Rensselaer,"33,478","1,449.42",559.625,4.561,1.761,"1,453.98",561.386,41.017688,–87.118814
IN,18075,Jay,Portland,"21,253",994.31,383.905,0.459,0.177,994.769,384.082,40.434972,–85.003380
IN,18077,Jefferson,Madison,"32,428",934.029,360.631,5.848,2.258,939.877,362.889,38.783604,–85.440090
IN,18079,Jennings,Vernon,"28,525",975.346,376.583,4.564,1.762,979.91,378.345,38.996234,–85.628111
IN,18081,Johnson,Franklin,"139,654",829.903,320.427,3.529,1.363,833.432,321.79,39.495986,–86.094600
IN,18083,Knox,Vincennes,"38,440","1,336.51",516.031,20.755,8.014,"1,357.27",524.045,38.688663,–87.420182
IN,18085,Kosciusko,Warsaw,"77,358","1,376.27",531.381,59.601,23.012,"1,435.87",554.393,41.244293,–85.861575
IN,18087,LaGrange,Lagrange,"37,128",983.222,379.624,18.333,7.078,"1,001.56",386.702,41.642468,–85.426302
IN,18089,Lake,Crown Point,"496,005","1,292.30",498.961,330.48,127.599,"1,622.78",626.56,41.472239,–87.374337
IN,18091,LaPorte,LaPorte,"111,467","1,549.59",598.299,38.747,14.96,"1,588.34",613.259,41.549011,–86.744729
IN,18093,Lawrence,Bedford,"46,134","1,163.34",449.168,7.151,2.761,"1,170.49",451.929,38.839815,–86.487820
IN,18095,Madison,Anderson,"131,636","1,170.46",451.915,2.562,0.989,"1,173.02",452.904,40.166203,–85.722454
IN,18097,Marion,Indianapolis,"903,393","1,026.41",396.298,17.378,6.71,"1,043.79",403.008,39.782976,–86.135794
IN,18099,Marshall,Plymouth,"47,051","1,148.99",443.629,15.836,6.114,"1,164.83",449.743,41.325003,–86.269036
IN,18101,Martin,Shoals,"10,334",869.555,335.737,12.093,4.669,881.648,340.406,38.705322,–86.801847
IN,18103,Miami,Peru,"36,903",968.247,373.842,9.185,3.546,977.431,377.388,40.772881,–86.044259
IN,18105,Monroe,Bloomington,"137,974","1,021.77",394.509,43.543,16.812,"1,065.32",411.321,39.160751,–86.523325
IN,18107,Montgomery,Crawfordsville,"38,124","1,306.94",504.613,2.155,0.832,"1,309.10",505.445,40.040296,–86.892715
IN,18109,Morgan,Martinsville,"68,894","1,046.28",403.969,14.137,5.458,"1,060.41",409.427,39.482646,–86.447457
IN,18111,Newton,Kentland,"14,244","1,040.55",401.759,4.35,1.679,"1,044.90",403.438,40.962399,–87.402172
IN,18113,Noble,Albion,"47,536","1,064.08",410.843,17.068,6.59,"1,081.15",417.433,41.400794,–85.417850
IN,18115,Ohio,Rising Sun,"6,128",223.102,86.14,3.352,1.294,226.454,87.434,38.940527,–84.964299
IN,18117,Orange,Paoli,"19,840","1,031.82",398.387,25.394,9.805,"1,057.21",408.192,38.547381,–86.489257
IN,18119,Owen,Spencer,"21,575",997.893,385.288,6.571,2.537,"1,004.46",387.825,39.317339,–86.838845
IN,18121,Parke,Rockville,"17,339","1,151.67",444.663,13.769,5.316,"1,165.44",449.979,39.77425,–87.196950
IN,18123,Perry,Tell City,"19,338",988.669,381.727,11.818,4.563,"1,000.49",386.29,38.081436,–86.626540
IN,18125,Pike,Petersburg,"12,845",865.674,334.238,17.757,6.856,883.43,341.094,38.397898,–87.232532
IN,18127,Porter,Valparaiso,"164,343","1,083.01",418.153,268.395,103.628,"1,351.41",521.781,41.509922,–87.071308
IN,18129,Posey,Mount Vernon,"25,910","1,060.78",409.571,25.264,9.754,"1,086.05",419.325,38.027614,–87.868653
IN,18131,Pulaski,Winamac,"13,402","1,123.15",433.649,2.292,0.885,"1,125.44",434.534,41.045272,–86.692538
IN,18133,Putnam,Greencastle,"37,963","1,244.56",480.528,5.605,2.164,"1,250.17",482.692,39.665545,–86.853325
IN,18135,Randolph,Winchester,"26,171","1,171.66",452.379,2.42,0.935,"1,174.08",453.314,40.164414,–85.005004
IN,18137,Ripley,Versailles,"28,818","1,156.24",446.426,4.238,1.636,"1,160.47",448.062,39.10023,–85.260541
IN,18139,Rush,Rushville,"17,392","1,057.04",408.124,0.872,0.337,"1,057.91",408.461,39.622312,–85.466527
IN,18141,St. Joseph,South Bend,"266,931","1,185.83",457.85,9.156,3.535,"1,194.98",461.385,41.617699,–86.288159
IN,18143,Scott,Scottsburg,"24,181",493.127,190.397,6.089,2.351,499.216,192.748,38.679431,–85.751898
IN,18145,Shelby,Shelbyville,"44,436","1,064.87",411.147,4.168,1.609,"1,069.03",412.756,39.524135,–85.792174
IN,18147,Spencer,Rockport,"20,952","1,027.56",396.744,12.127,4.682,"1,039.69",401.426,38.009789,–87.010645
IN,18149,Starke,Knox,"23,363",800.654,309.134,7.955,3.072,808.609,312.206,41.28322,–86.647570
IN,18151,Steuben,Angola,"34,185",800.149,308.939,35.034,13.527,835.183,322.466,41.643437,–85.002467
IN,18153,Sullivan,Sullivan,"21,475","1,158.09",447.142,18.063,6.974,"1,176.16",454.116,39.089225,–87.415843
IN,18155,Switzerland,Vevay,"10,613",571.436,220.633,7.267,2.806,578.704,223.439,38.825846,–85.029679
IN,18157,Tippecanoe,Lafayette,"172,780","1,294.49",499.806,8.903,3.437,"1,303.39",503.243,40.38926,–86.893943
IN,18159,Tipton,Tipton,"15,936",674.798,260.541,0.068,0.026,674.866,260.567,40.310229,–86.056207
IN,18161,Union,Liberty,"7,516",417.568,161.224,10.239,3.953,427.807,165.177,39.623111,–84.925152
IN,18163,Vanderburgh,Evansville,"179,703",604.698,233.475,7.393,2.855,612.091,236.33,38.02007,–87.586166
IN,18165,Vermillion,Newport,"16,212",665.312,256.878,7.905,3.052,673.217,259.93,39.854045,–87.462071
IN,18167,Vigo,Terre Haute,"107,848","1,044.58",403.313,18.487,7.138,"1,063.06",410.451,39.429143,–87.390375
IN,18169,Wabash,Wabash,"32,888","1,068.20",412.434,22.122,8.541,"1,090.32",420.975,40.843717,–85.795175
IN,18171,Warren,Williamsport,"8,508",944.521,364.681,4.466,1.724,948.987,366.405,40.352658,–87.375847
IN,18173,Warrick,Boonville,"59,689",996.667,384.815,16.156,6.238,"1,012.82",391.053,38.097764,–87.272023
IN,18175,Washington,Salem,"28,262","1,330.54",513.725,7.444,2.874,"1,337.99",516.599,38.600613,–86.104751
IN,18177,Wayne,Richmond,"68,917","1,040.50",401.74,6.737,2.601,"1,047.24",404.341,39.863091,–85.006735
IN,18179,Wells,Bluffton,"27,636",953.341,368.087,5.596,2.161,958.938,370.248,40.735273,–85.212974
IN,18181,White,Monticello,"24,643","1,308.27",505.125,9.206,3.555,"1,317.47",508.68,40.75095,–86.864293
IN,18183,Whitley,Columbia City,"33,292",869.121,335.569,6.073,2.345,875.194,337.914,41.136426,–85.501892
IA,19001,Adair,Greenfield,"7,682","1,474.40",569.271,2.598,1.003,"1,477.00",570.274,41.328528,–94.478164
IA,19003,Adams,Corning,"4,029","1,096.70",423.439,5.353,2.067,"1,102.05",425.506,41.021656,–94.696906
IA,19005,Allamakee,Waukon,"14,330","1,655.21",639.082,50.995,19.689,"1,706.21",658.771,43.274964,–91.382751
IA,19007,Appanoose,Centerville,"12,887","1,287.98",497.292,49.084,18.951,"1,337.07",516.243,40.744683,–92.870345
IA,19009,Audubon,Audubon,"6,119","1,147.26",442.961,1.152,0.445,"1,148.42",443.406,41.679178,–94.904312
IA,19011,Benton,Vinton,"26,076","1,855.12",716.265,5.761,2.224,"1,860.88",718.489,42.092547,–92.057630
IA,19013,Black Hawk,Waterloo,"131,090","1,465.33",565.769,17.9,6.911,"1,483.23",572.68,42.472888,–92.306059
IA,19015,Boone,Boone,"26,306","1,480.36",571.569,5.365,2.071,"1,485.72",573.64,42.038601,–93.939138
IA,19017,Bremer,Waverly,"24,276","1,127.88",435.477,10.172,3.927,"1,138.05",439.404,42.78089,–92.327586
IA,19019,Buchanan,Independence,"20,958","1,478.94",571.02,5.428,2.096,"1,484.36",573.116,42.470328,–91.838666
IA,19021,Buena Vista,Storm Lake,"20,260","1,489.02",574.915,13.758,5.312,"1,502.78",580.227,42.741522,–95.141433
IA,19023,Butler,Allison,"14,867","1,502.53",580.131,4.21,1.625,"1,506.74",581.756,42.734708,–92.780066
IA,19025,Calhoun,Rockwell City,"9,670","1,476.21",569.968,5.561,2.147,"1,481.77",572.115,42.38617,–94.643683
IA,19027,Carroll,Carroll,"20,816","1,474.84",569.437,2.145,0.828,"1,476.98",570.265,42.039492,–94.867647
IA,19029,Cass,Atlantic,"13,956","1,461.45",564.269,1.759,0.679,"1,463.21",564.948,41.333824,–94.933302
IA,19031,Cedar,Tipton,"18,499","1,500.73",579.436,6.386,2.466,"1,507.12",581.902,41.772355,–91.132190
IA,19033,Cerro Gordo,Mason City,"44,151","1,471.92",568.313,17.627,6.806,"1,489.55",575.119,43.075171,–93.251266
IA,19035,Cherokee,Cherokee,"12,072","1,494.18",576.906,0.423,0.163,"1,494.60",577.069,42.742738,–95.633262
IA,19037,Chickasaw,New Hampton,"12,439","1,306.34",504.38,3.309,1.278,"1,309.65",505.658,43.059741,–92.317210
IA,19039,Clarke,Osceola,"9,286","1,116.72",431.167,1.525,0.589,"1,118.24",431.756,41.029191,–93.784096
IA,19041,Clay,Spencer,"16,667","1,469.14",567.238,13.867,5.354,"1,483.01",572.592,43.079822,–95.149726
IA,19043,Clayton,Elkader,"18,129","2,016.41",778.539,36.586,14.126,"2,052.99",792.665,42.840998,–91.323511
IA,19045,Clinton,Clinton,"49,116","1,799.82",694.915,39.524,15.26,"1,839.35",710.175,41.898073,–90.534243
IA,19047,Crawford,Denison,"17,096","1,849.74",714.19,2.194,0.847,"1,851.94",715.037,42.043119,–95.389090
IA,19049,Dallas,Adel,"66,135","1,524.07",588.447,8.421,3.252,"1,532.49",591.699,41.685321,–94.040707
IA,19051,Davis,Bloomfield,"8,753","1,300.66",502.188,6.904,2.666,"1,307.57",504.854,40.748089,–92.410345
IA,19053,Decatur,Leon,"8,457","1,377.57",531.881,4.142,1.599,"1,381.71",533.48,40.736379,–93.784580
IA,19055,Delaware,Manchester,"17,764","1,496.38",577.756,3.082,1.19,"1,499.46",578.946,42.473003,–91.359443
IA,19057,Des Moines,Burlington,"40,325","1,077.76",416.123,35.294,13.627,"1,113.05",429.75,40.915339,–91.186925
IA,19059,Dickinson,Spirit Lake,"16,667",985.764,380.606,60.491,23.356,"1,046.26",403.962,43.389611,–95.196057
IA,19061,Dubuque,Dubuque,"93,653","1,575.50",608.305,21.569,8.328,"1,597.07",616.633,42.463481,–90.878771
IA,19063,Emmet,Estherville,"10,302","1,025.33",395.883,17.196,6.64,"1,042.53",402.523,43.377984,–94.669370
IA,19065,Fayette,West Union,"20,880","1,892.79",730.811,1.334,0.515,"1,894.13",731.326,42.86445,–91.839373
IA,19067,Floyd,Charles City,"16,303","1,296.63",500.632,1.943,0.75,"1,298.57",501.382,43.052741,–92.787367
IA,19069,Franklin,Hampton,"10,680","1,507.30",581.972,1.429,0.552,"1,508.73",582.524,42.736549,–93.271425
IA,19071,Fremont,Sidney,"7,441","1,323.87",511.15,14.214,5.488,"1,338.09",516.638,40.743726,–95.599516
IA,19073,Greene,Jefferson,"9,336","1,475.19",569.574,4.25,1.641,"1,479.44",571.215,42.042494,–94.388703
IA,19075,Grundy,Grundy Center,"12,453","1,299.81",501.858,0.094,0.036,"1,299.90",501.894,42.403323,–92.790261
IA,19077,Guthrie,Guthrie Center,"10,954","1,529.70",590.62,6.356,2.454,"1,536.06",593.074,41.683573,–94.501272
IA,19079,Hamilton,Webster City,"15,673","1,493.78",576.751,1.965,0.759,"1,495.74",577.51,42.390768,–93.709198
IA,19081,Hancock,Garner,"11,341","1,478.90",571.005,5.266,2.033,"1,484.16",573.038,43.075411,–93.743697
IA,19083,Hardin,Eldora,"17,534","1,474.50",569.307,1.774,0.685,"1,476.27",569.992,42.389955,–93.241081
IA,19085,Harrison,Logan,"14,928","1,804.83",696.848,12.418,4.795,"1,817.25",701.643,41.688584,–95.827149
IA,19087,Henry,Mount Pleasant,"20,145","1,124.90",434.328,5.78,2.232,"1,130.69",436.56,40.985864,–91.544270
IA,19089,Howard,Cresco,"9,566","1,225.71",473.248,0.928,0.358,"1,226.63",473.606,43.365313,–92.321908
IA,19091,Humboldt,Dakota City,"9,815","1,124.97",434.352,3.406,1.315,"1,128.37",435.667,42.782221,–94.202775
IA,19093,Ida,Ida Grove,"7,089","1,117.60",431.508,1.406,0.543,"1,119.01",432.051,42.39186,–95.507421
IA,19095,Iowa,Marengo,"16,355","1,518.92",586.457,2.687,1.037,"1,521.60",587.494,41.683918,–92.059123
IA,19097,Jackson,Maquoketa,"19,848","1,647.33",636.039,35.142,13.568,"1,682.47",649.607,42.164281,–90.574597
IA,19099,Jasper,Newton,"36,842","1,891.78",730.42,6.566,2.535,"1,898.35",732.955,41.685686,–93.052971
IA,19101,Jefferson,Fairfield,"16,843","1,127.97",435.51,3.538,1.366,"1,131.50",436.876,41.00688,–91.967137
IA,19103,Johnson,Iowa City,"130,882","1,590.36",614.04,23.595,9.11,"1,613.95",623.15,41.668737,–91.588812
IA,19105,Jones,Anamosa,"20,638","1,490.85",575.621,3.583,1.383,"1,494.43",577.004,42.125118,–91.116914
IA,19107,Keokuk,Sigourney,"10,511","1,500.07",579.179,1.929,0.745,"1,502.00",579.924,41.331182,–92.167721
IA,19109,Kossuth,Algona,"15,543","2,519.33",972.72,4.155,1.604,"2,523.49",974.324,43.212478,–94.213983
IA,19111,Lee,"Fort Madison, Keokuk","35,862","1,340.37",517.518,55.294,21.349,"1,395.66",538.867,40.647588,–91.477157
IA,19113,Linn,Cedar Rapids,"211,226","1,856.71",716.88,19.749,7.625,"1,876.46",724.505,42.077951,–91.597674
IA,19115,Louisa,Wapello,"11,387","1,040.57",401.766,40.798,15.752,"1,081.37",417.518,41.218211,–91.256994
IA,19117,Lucas,Chariton,"8,898","1,115.23",430.593,9.853,3.804,"1,125.08",434.397,41.033344,–93.331467
IA,19119,Lyon,Rock Rapids,"11,581","1,522.01",587.65,0.334,0.129,"1,522.34",587.779,43.38358,–96.207201
IA,19121,Madison,Winterset,"15,679","1,453.00",561.006,2.984,1.152,"1,455.98",562.158,41.330622,–94.015184
IA,19123,Mahaska,Oskaloosa,"22,381","1,478.53",570.863,6.565,2.535,"1,485.09",573.398,41.330797,–92.636366
IA,19125,Marion,Knoxville,"33,309","1,436.24",554.534,41.375,15.975,"1,477.61",570.509,41.331455,–93.093849
IA,19127,Marshall,Marshalltown,"40,648","1,482.77",572.501,1.803,0.696,"1,484.57",573.197,42.041691,–92.981452
IA,19129,Mills,Glenwood,"15,059","1,132.96",437.437,8.307,3.207,"1,141.26",440.644,41.033703,–95.619101
IA,19131,Mitchell,Osage,"10,776","1,215.05",469.133,1.118,0.432,"1,216.17",469.565,43.348564,–92.784466
IA,19133,Monona,Onawa,"9,243","1,797.64",694.072,12.592,4.862,"1,810.23",698.934,42.049432,–95.956566
IA,19135,Monroe,Albia,"7,970","1,123.32",433.715,1.523,0.588,"1,124.84",434.303,41.028847,–92.869642
IA,19137,Montgomery,Red Oak,"10,740","1,098.41",424.097,2.41,0.931,"1,100.82",425.028,41.021735,–95.157790
IA,19139,Muscatine,Muscatine,"42,745","1,133.04",437.469,30.199,11.66,"1,163.24",449.129,41.483776,–91.118699
IA,19141,O'Brien,Primghar,"14,398","1,484.15",573.035,0.447,0.173,"1,484.60",573.208,43.083746,–95.625624
IA,19143,Osceola,Sibley,"6,462","1,032.59",398.684,1.835,0.709,"1,034.42",399.393,43.378542,–95.633788
IA,19145,Page,Clarinda,"15,932","1,385.49",534.942,1.359,0.525,"1,386.85",535.467,40.73909,–95.144290
IA,19147,Palo Alto,Emmetsburg,"9,421","1,460.35",563.844,14.48,5.591,"1,474.83",569.435,43.075854,–94.667297
IA,19149,Plymouth,Le Mars,"24,986","2,234.88",862.893,2.177,0.841,"2,237.06",863.734,42.737585,–96.215864
IA,19151,Pocahontas,Pocahontas,"7,310","1,495.05",577.241,3.667,1.416,"1,498.71",578.657,42.734033,–94.678279
IA,19153,Polk,Des Moines,"430,640","1,486.12",573.795,45.946,17.74,"1,532.07",591.535,41.684281,–93.569720
IA,19155,Pottawattamie,Council Bluffs,"93,158","2,461.21",950.28,22.926,8.852,"2,484.14",959.132,41.340184,–95.544905
IA,19157,Poweshiek,Montezuma,"18,914","1,514.97",584.932,2.939,1.135,"1,517.91",586.067,41.684526,–92.522882
IA,19159,Ringgold,Mount Ayr,"5,131","1,386.93",535.498,8.722,3.367,"1,395.66",538.865,40.735334,–94.244251
IA,19161,Sac,Sac City,"10,350","1,489.27",575.012,8.597,3.319,"1,497.87",578.331,42.387526,–95.105224
IA,19163,Scott,Davenport,"165,224","1,186.44",458.089,26.216,10.122,"1,212.66",468.211,41.641679,–90.622290
IA,19165,Shelby,Harlan,"12,167","1,530.11",590.779,1.486,0.574,"1,531.60",591.353,41.679014,–95.308917
IA,19167,Sioux,Orange City,"33,704","1,989.97",768.332,1.707,0.659,"1,991.68",768.991,43.082854,–96.177929
IA,19169,Story,Nevada,"89,542","1,483.59",572.818,2.152,0.831,"1,485.75",573.649,42.037538,–93.466093
IA,19171,Tama,Toledo,"17,767","1,867.41",721.011,2.769,1.069,"1,870.18",722.08,42.074848,–92.529412
IA,19173,Taylor,Bedford,"6,317","1,377.62",531.902,7.134,2.754,"1,384.75",534.656,40.737949,–94.697108
IA,19175,Union,Creston,"12,534","1,097.24",423.645,5.576,2.153,"1,102.81",425.798,41.02855,–94.245091
IA,19177,Van Buren,Keosauqua,"7,570","1,255.60",484.789,14.84,5.73,"1,270.44",490.519,40.754117,–91.952943
IA,19179,Wapello,Ottumwa,"35,625","1,118.44",431.833,10.846,4.188,"1,129.29",436.021,41.031263,–92.409482
IA,19181,Warren,Indianola,"46,225","1,475.85",569.827,9.125,3.523,"1,484.97",573.35,41.336769,–93.564366
IA,19183,Washington,Washington,"21,704","1,473.28",568.835,5.4,2.085,"1,478.68",570.92,41.329401,–91.725052
IA,19185,Wayne,Corydon,"6,403","1,360.88",525.437,4.441,1.715,"1,365.32",527.152,40.739983,–93.332613
IA,19187,Webster,Fort Dodge,"38,013","1,853.44",715.619,7.278,2.81,"1,860.72",718.429,42.434397,–94.179157
IA,19189,Winnebago,Forest City,"10,866","1,037.26",400.489,3.182,1.229,"1,040.44",401.718,43.378124,–93.743488
IA,19191,Winneshiek,Decorah,"21,056","1,786.75",689.868,0.699,0.27,"1,787.45",690.138,43.292989,–91.850788
IA,19193,Woodbury,Sioux City,"102,172","2,260.63",872.834,12.793,4.94,"2,273.42",877.774,42.39322,–96.053296
IA,19195,Worth,Northwood,"7,598","1,036.32",400.123,4.709,1.818,"1,041.02",401.941,43.373491,–93.248533
IA,19197,Wright,Clarion,"13,229","1,503.29",580.422,4.704,1.816,"1,507.99",582.238,42.733007,–93.734735
KS,20001,Allen,Iola,"13,371","1,295.78",500.303,13.007,5.022,"1,308.79",505.325,37.884229,–95.300945
KS,20003,Anderson,Garnett,"8,102","1,501.28",579.646,10.587,4.088,"1,511.86",583.734,38.215114,–95.292046
KS,20005,Atchison,Atchison,"16,924","1,116.73",431.172,6.858,2.648,"1,123.59",433.82,39.532544,–95.313398
KS,20007,Barber,Medicine Lodge,"4,861","2,937.24","1,134.07",5.42,2.093,"2,942.66","1,136.17",37.222906,–98.685052
KS,20009,Barton,Great Bend,"27,674","2,319.08",895.4,13.557,5.234,"2,332.63",900.634,38.481239,–98.767837
KS,20011,Bourbon,Fort Scott,"15,173","1,645.86",635.471,9.378,3.621,"1,655.24",639.092,37.8561,–94.850928
KS,20013,Brown,Hiawatha,"9,984","1,478.55",570.872,3.196,1.234,"1,481.75",572.106,39.825931,–95.569905
KS,20015,Butler,El Dorado,"65,880","3,703.33","1,429.86",43.16,16.664,"3,746.49","1,446.53",37.773681,–96.838762
KS,20017,Chase,Cottonwood Falls,"2,790","2,002.22",773.06,12.088,4.667,"2,014.31",777.727,38.298553,–96.594064
KS,20019,Chautauqua,Sedan,"3,669","1,654.69",638.881,15.244,5.886,"1,669.94",644.767,37.154259,–96.245396
KS,20021,Cherokee,Columbus,"21,603","1,521.79",587.568,8.949,3.455,"1,530.74",591.023,37.169392,–94.845698
KS,20023,Cheyenne,St. Francis,"2,726","2,641.50","1,019.89",2.738,1.057,"2,644.23","1,020.94",39.789256,–101.727302
KS,20025,Clark,Ashland,"2,215","2,524.29",974.632,6.605,2.55,"2,530.89",977.182,37.233831,–99.813869
KS,20027,Clay,Clay Center,"8,535","1,671.32",645.301,26.674,10.299,"1,698.00",655.6,39.344964,–97.168853
KS,20029,Cloud,Concordia,"9,533","1,852.73",715.342,6.86,2.649,"1,859.59",717.991,39.487329,–97.641390
KS,20031,Coffey,Burlington,"8,601","1,623.78",626.947,70.311,27.147,"1,694.10",654.094,38.23645,–95.729137
KS,20033,Comanche,Coldwater,"1,891","2,041.68",788.298,3.604,1.392,"2,045.29",789.69,37.189071,–99.254089
KS,20035,Cowley,Winfield,"36,311","2,915.68","1,125.75",17.291,6.676,"2,932.97","1,132.43",37.234507,–96.837247
KS,20037,Crawford,Girard,"39,134","1,527.46",589.756,13.611,5.255,"1,541.07",595.011,37.505628,–94.853941
KS,20039,Decatur,Oberlin,"2,961","2,314.20",893.517,1.632,0.63,"2,315.83",894.147,39.783542,–100.459708
KS,20041,Dickinson,Abilene,"19,754","2,193.91",847.072,12.635,4.878,"2,206.54",851.95,38.867735,–97.157943
KS,20043,Doniphan,Troy,"7,945","1,018.92",393.405,12.615,4.871,"1,031.53",398.276,39.788502,–95.147225
KS,20045,Douglas,Lawrence,"110,826","1,180.70",455.871,48.603,18.766,"1,229.30",474.637,38.896573,–95.290529
KS,20047,Edwards,Kinsley,"3,037","1,610.70",621.894,0.209,0.081,"1,610.91",621.975,37.883595,–99.304746
KS,20049,Elk,Howard,"2,882","1,668.64",644.265,16.061,6.201,"1,684.70",650.466,37.456026,–96.244642
KS,20051,Ellis,Hays,"28,452","2,330.76",899.912,1.197,0.462,"2,331.96",900.374,38.914596,–99.317329
KS,20053,Ellsworth,Ellsworth,"6,497","1,854.04",715.847,19.27,7.44,"1,873.31",723.287,38.700845,–98.205355
KS,20055,Finney,Garden City,"36,776","3,372.08","1,301.97",1.826,0.705,"3,373.91","1,302.67",38.049855,–100.739929
KS,20057,Ford,Dodge City,"33,848","2,844.51","1,098.27",2.097,0.81,"2,846.61","1,099.08",37.688365,–99.884734
